,site_no,station_nm,dec_lat_va,dec_long_va,huc_cd,tz_cd,flow,flow_unit,flow_dt,stage,stage_unit,stage_dt,class,percentile,percent_median,percent_mean,url
0,2043433,"CURRITUCK SOUND ON EAST BANK AT COROLLA, NC",36.3744,-75.8344,3010205,EST,0,,0000-00-00 00:00:00,0.41,ft,2019-03-25 17:45:00,0,0.0,,,https://waterdata.usgs.gov/nc/nwis/uv?site_no=02043433
1,2053200,"POTECASI CREEK NEAR UNION, NC",36.3708,-77.0256,3010204,EST,226,cfs,2019-03-25 17:00:00,6.17,ft,2019-03-25 17:00:00,5,43.12,84.33,65.52,https://waterdata.usgs.gov/nc/nwis/uv?site_no=02053200
2,2053500,"AHOSKIE CREEK AT AHOSKIE, NC",36.2803,-76.9994,3010203,EST,31,cfs,2019-03-25 17:30:00,2.31,ft,2019-03-25 17:30:00,5,26.33,68.13,42.85,https://waterdata.usgs.gov/nc/nwis/uv?site_no=02053500
3,2068500,"DAN RIVER NEAR FRANCISCO, NC",36.515,-80.3031,3010103,EST,303,cfs,2019-03-25 17:30:00,2.07,ft,2019-03-25 17:30:00,6,77.17,151.88,115.91,https://waterdata.usgs.gov/nc/nwis/uv?site_no=02068500
4,2069000,"DAN RIVER AT PINE HALL, NC",36.3193,-80.05,3010103,EST,837,cfs,2019-03-25 17:15:00,3.68,ft,2019-03-25 17:15:00,0,75.74,145.19,90.95,https://waterdata.usgs.gov/nc/nwis/uv?site_no=02069000
5,2070500,"MAYO RIVER NEAR PRICE, NC",36.5339,-79.9914,3010103,EST,523,cfs,2019-03-25 17:45:00,2.16,ft,2019-03-25 17:45:00,6,82.55,158.48,128.52,https://waterdata.usgs.gov/nc/nwis/uv?site_no=02070500
6,2071000,"DAN RIVER NEAR WENTWORTH, NC",36.4125,-79.8261,3010103,EST,1630,cfs,2019-03-25 17:45:00,3.23,ft,2019-03-25 17:45:00,5,70.57,138.14,86.35,https://waterdata.usgs.gov/nc/nwis/uv?site_no=02071000
7,2074000,"SMITH RIVER AT EDEN, NC",36.5256,-79.7656,3010103,EST,789,cfs,2019-03-25 17:00:00,2.93,ft,2019-03-25 17:00:00,5,62.63,125.64,94.28,https://waterdata.usgs.gov/nc/nwis/uv?site_no=02074000
8,2077200,"HYCO CREEK NEAR LEASBURG, NC",36.3978,-79.1967,3010104,EST,56.5,cfs,2019-03-25 17:45:00,24.95,ft,2019-03-25 17:45:00,5,65.29,148.68,77.87,https://waterdata.usgs.gov/nc/nwis/uv?site_no=02077200
9,2077280,"HYCO LAKE AT DAM NR ROXBORO, NC",36.5117,-79.0472,3010104,EST,0,,0000-00-00 00:00:00,10.75,ft,2019-03-25 17:45:00,0,0.0,,,https://waterdata.usgs.gov/nc/nwis/uv?site_no=02077280
10,2077303,"HYCO R BL ABAY D NR MCGEHEES MILL, NC",36.5225,-78.9975,3010104,EST,Eqp,cfs,2019-02-25 13:15:00,Eqp,ft,2019-02-25 13:15:00,0,19.15,20.74,7.65,https://waterdata.usgs.gov/nc/nwis/uv?site_no=02077303
11,2077670,"MAYO CR NR BETHEL HILL, NC",36.5408,-78.8719,3010104,EST,140,cfs,2019-03-25 17:45:00,3.31,ft,2019-03-25 17:45:00,6,81.89,286.59,158.8,https://waterdata.usgs.gov/nc/nwis/uv?site_no=02077670
12,2080500,"ROANOKE RIVER AT ROANOKE RAPIDS, NC",36.46,-77.6336,3010107,EST,8780,cfs,2019-03-25 17:45:00,5.7,ft,2019-03-25 17:45:00,5,56.38,121.69,84.96,https://waterdata.usgs.gov/nc/nwis/uv?site_no=02080500
13,2081000,"ROANOKE RIVER NEAR SCOTLAND NECK, NC",36.2092,-77.3839,3010107,EST,0,,0000-00-00 00:00:00,16.18,ft,2019-03-25 17:00:00,0,0.0,,,https://waterdata.usgs.gov/nc/nwis/uv?site_no=02081000
14,2081022,"ROANOKE RIVER NEAR OAK CITY, NC",36.0136,-77.2153,3010107,EST,1850,cfs,2007-09-16 23:45:00,16.54,ft,2019-03-25 17:45:00,0,0.0,,,https://waterdata.usgs.gov/nc/nwis/uv?site_no=02081022
15,2081028,"ROANOKE RIVER AT HAMILTON, NC",35.9475,-77.2025,3010107,EST,0,,0000-00-00 00:00:00,14.76,ft,2019-03-25 17:30:00,0,0.0,,,https://waterdata.usgs.gov/nc/nwis/uv?site_no=02081028
16,2081054,"ROANOKE RIVER AT WILLIAMSTON, NC",35.8597,-77.0403,3010107,EST,1530,cfs,2007-11-12 23:45:00,11.03,ft,2019-03-25 17:00:00,0,0.0,,,https://waterdata.usgs.gov/nc/nwis/uv?site_no=02081054
17,2081094,"ROANOKE RIVER AT JAMESVILLE, NC",35.8131,-76.8928,3010107,EST,0,,0000-00-00 00:00:00,3.05,ft,2019-03-25 17:00:00,0,0.0,,,https://waterdata.usgs.gov/nc/nwis/uv?site_no=02081094
18,2081500,"TAR RIVER NEAR TAR RIVER, NC",36.1942,-78.5831,3020101,EST,179,cfs,2019-03-25 17:30:00,2.87,ft,2019-03-25 17:30:00,5,62.24,135.09,58.0,https://waterdata.usgs.gov/nc/nwis/uv?site_no=02081500
19,2081747,"TAR R AT US 401 AT LOUISBURG, NC",36.0931,-78.2961,3020101,EST,478,cfs,2019-03-25 17:45:00,7.03,ft,2019-03-25 17:45:00,5,59.67,123.83,72.38,https://waterdata.usgs.gov/nc/nwis/uv?site_no=02081747
20,2081942,"TAR RIVER AT NC-581 NEAR SPRING HOPE, NC",35.8821,-78.0895,3020101,EST,771,cfs,2019-03-25 17:15:00,4.98,ft,2019-03-25 17:15:00,0,83.33,155.76,160.83,https://waterdata.usgs.gov/nc/nwis/uv?site_no=02081942
21,2082585,"TAR RIVER AT NC 97 AT ROCKY MOUNT, NC",35.9547,-77.7872,3020101,EST,238,cfs,2019-03-25 17:00:00,3.77,ft,2019-03-25 17:00:00,1,2.33,25.59,12.77,https://waterdata.usgs.gov/nc/nwis/uv?site_no=02082585
22,2082770,"SWIFT CREEK AT HILLIARDSTON, NC",36.1122,-77.92,3020101,EST,184,cfs,2019-03-25 17:45:00,3.07,ft,2019-03-25 17:45:00,5,60.93,110.84,83.27,https://waterdata.usgs.gov/nc/nwis/uv?site_no=02082770
23,2082950,"LITTLE FISHING CREEK NEAR WHITE OAK, NC",36.1833,-77.8761,3020102,EST,178,cfs,2019-03-25 17:00:00,4.06,ft,2019-03-25 17:00:00,5,52.67,104.71,81.28,https://waterdata.usgs.gov/nc/nwis/uv?site_no=02082950
24,2083000,"FISHING CREEK NEAR ENFIELD, NC",36.1506,-77.6931,3020102,EST,540,cfs,2019-03-25 17:00:00,6.27,ft,2019-03-25 17:00:00,5,54.29,105.88,76.81,https://waterdata.usgs.gov/nc/nwis/uv?site_no=02083000
25,2083500,"TAR RIVER AT TARBORO, NC",35.8944,-77.5331,3020103,EST,4890,cfs,2019-03-25 17:15:00,12.89,ft,2019-03-25 17:15:00,6,75.57,167.47,121.8,https://waterdata.usgs.gov/nc/nwis/uv?site_no=02083500
26,2084000,"TAR RIVER AT GREENVILLE, NC",35.6167,-77.3728,3020103,EST,6020,cfs,2019-03-25 17:00:00,10.19,ft,2019-03-25 17:00:00,0,79.49,246.22,137.19,https://waterdata.usgs.gov/nc/nwis/uv?site_no=02084000
27,2084160,"CHICOD CR AT SR1760 NEAR SIMPSON, NC",35.5617,-77.2308,3020103,EST,9.82,cfs,2019-03-25 17:45:00,8.47,ft,2019-03-25 17:45:00,1,2.63,26.47,22.01,https://waterdata.usgs.gov/nc/nwis/uv?site_no=02084160
28,2084472,"PAMLICO RIVER AT WASHINGTON, NC",35.5433,-77.0619,3020104,EST,4390,cfs,2006-09-30 23:45:00,1.07,ft,2019-03-25 17:00:00,0,60.37,145.61,94.61,https://waterdata.usgs.gov/nc/nwis/uv?site_no=02084472
29,2084557,"VAN SWAMP NEAR HOKE, NC",35.7308,-76.7461,3020104,EST,32.9,cfs,2019-03-25 17:30:00,1.6,ft,2019-03-25 17:30:00,5,57.21,110.77,78.0,https://waterdata.usgs.gov/nc/nwis/uv?site_no=02084557
30,2085000,"ENO RIVER AT HILLSBOROUGH, NC",36.0711,-79.0956,3020201,EST,103,cfs,2019-03-25 17:45:00,2.83,ft,2019-03-25 17:45:00,6,79.37,182.3,117.9,https://waterdata.usgs.gov/nc/nwis/uv?site_no=02085000
31,2085039,ENO RIVER AT COLE MILL RD NR HUCKLEBERRY SPRING,36.0594,-78.9781,3020201,EST,0,,0000-00-00 00:00:00,3.01,ft,2019-03-25 17:00:00,0,0.0,,,https://waterdata.usgs.gov/nc/nwis/uv?site_no=02085039
32,2085070,"ENO RIVER NEAR DURHAM, NC",36.0722,-78.9078,3020201,EST,169,cfs,2019-03-25 17:15:00,2.54,ft,2019-03-25 17:15:00,5,67.92,139.09,80.81,https://waterdata.usgs.gov/nc/nwis/uv?site_no=02085070
33,2085500,"FLAT RIVER AT BAHAMA, NC",36.1828,-78.8789,3020201,EST,215,cfs,2019-03-25 17:45:00,2.04,ft,2019-03-25 17:45:00,5,73.43,167.97,91.22,https://waterdata.usgs.gov/nc/nwis/uv?site_no=02085500
34,2086500,"FLAT RIVER AT DAM NEAR BAHAMA, NC",36.1486,-78.8289,3020201,EST,245,cfs,2019-03-25 17:45:00,2.23,ft,2019-03-25 17:45:00,5,64.28,154.09,81.18,https://waterdata.usgs.gov/nc/nwis/uv?site_no=02086500
35,2086624,"KNAP OF REEDS CREEK NEAR BUTNER, NC",36.1279,-78.7983,3020201,EST,35.4,cfs,2019-03-25 17:00:00,2.45,ft,2019-03-25 17:00:00,0,68.31,160.18,56.03,https://waterdata.usgs.gov/nc/nwis/uv?site_no=02086624
36,2086849,"ELLERBE CREEK NEAR GORMAN, NC",36.0593,-78.8325,3020201,EST,24.2,cfs,2019-03-25 17:00:00,1.68,ft,2019-03-25 17:00:00,0,48.08,96.03,39.18,https://waterdata.usgs.gov/nc/nwis/uv?site_no=02086849
37,2087182,"FALLS LAKE ABOVE DAM NR FALLS, NC",35.9411,-78.5833,3020201,EST,0,,0000-00-00 00:00:00,251.91,ft,2019-03-25 17:00:00,0,0.0,,,https://waterdata.usgs.gov/nc/nwis/uv?site_no=02087182
38,2087183,"NEUSE RIVER NEAR FALLS, NC",35.94,-78.5808,3020201,EST,1340,cfs,2019-03-25 17:15:00,2.6,ft,2019-03-25 17:15:00,5,70.29,264.82,119.04,https://waterdata.usgs.gov/nc/nwis/uv?site_no=02087183
39,2087275,"CRABTREE CREEK AT HWY 70 AT RALEIGH, NC",35.8381,-78.6742,3020201,EST,68.7,cfs,2019-03-25 17:00:00,5.28,ft,2019-03-25 17:00:00,0,46.76,93.47,59.67,https://waterdata.usgs.gov/nc/nwis/uv?site_no=02087275
40,2087322,"CRABTREE CR AT OLD WAKE FOREST RD AT RALEIGH, NC",35.8158,-78.6261,3020201,EST,0,,0000-00-00 00:00:00,1.83,ft,2019-03-25 17:00:00,0,0.0,,,https://waterdata.usgs.gov/nc/nwis/uv?site_no=02087322
41,2087324,"CRABTREE CREEK AT US 1 AT RALEIGH, NC",35.8111,-78.6108,3020201,EST,76,cfs,2019-03-25 17:15:00,1.12,ft,2019-03-25 17:15:00,0,34.55,89.31,58.75,https://waterdata.usgs.gov/nc/nwis/uv?site_no=02087324
42,2087337,"WALNUT CREEK AT BUCK JONES ROAD AT RALEIGH, NC",35.7729,-78.737,3020201,EST,0,,0000-00-00 00:00:00,1.03,ft,2019-03-25 17:50:00,0,0.0,,,https://waterdata.usgs.gov/nc/nwis/uv?site_no=02087337
43,2087339,"LAKE JOHNSON ABOVE DAM AT RALEIGH, NC",35.7627,-78.7056,3020201,EST,0,,0000-00-00 00:00:00,343.26,ft,2019-03-25 17:00:00,0,0.0,,,https://waterdata.usgs.gov/nc/nwis/uv?site_no=02087339
44,2087359,"WALNUT CREEK AT SUNNYBROOK DRIVE NR RALEIGH, NC",35.7583,-78.5831,3020201,EST,16.3,cfs,2019-03-25 17:30:00,2.5,ft,2019-03-25 17:30:00,0,40.83,95.88,56.4,https://waterdata.usgs.gov/nc/nwis/uv?site_no=02087359
45,2087500,"NEUSE RIVER NEAR CLAYTON, NC",35.6472,-78.4053,3020201,EST,3320,cfs,2019-03-25 17:15:00,6,ft,2019-03-25 17:15:00,6,84.01,274.38,195.59,https://waterdata.usgs.gov/nc/nwis/uv?site_no=02087500
46,2087570,"NEUSE RIVER AT SMITHFIELD, NC",35.5125,-78.3494,3020201,EST,298,cfs,1991-09-30 23:30:00,12.82,ft,2019-03-25 17:15:00,0,4.55,20.69,10.63,https://waterdata.usgs.gov/nc/nwis/uv?site_no=02087570
47,2087580,"SWIFT CREEK NEAR APEX, NC",35.7189,-78.7522,3020201,EST,8.5,cfs,2019-03-25 17:45:00,2.27,ft,2019-03-25 17:45:00,0,47.36,94.87,59.94,https://waterdata.usgs.gov/nc/nwis/uv?site_no=02087580
48,2088000,"MIDDLE CREEK NEAR CLAYTON, NC",35.5708,-78.5906,3020201,EST,84.5,cfs,2019-03-25 17:00:00,2.51,ft,2019-03-25 17:00:00,5,43.12,92.4,60.91,https://waterdata.usgs.gov/nc/nwis/uv?site_no=02088000
49,2088383,"LITTLE RIVER NEAR ZEBULON, NC",35.8219,-78.3522,3020201,EST,61.7,cfs,2019-03-25 17:15:00,2.12,ft,2019-03-25 17:15:00,0,60.0,103.7,105.34,https://waterdata.usgs.gov/nc/nwis/uv?site_no=02088383
50,2088500,"LITTLE RIVER NEAR PRINCETON, NC",35.5114,-78.1603,3020201,EST,250,cfs,2019-03-25 17:30:00,2.06,ft,2019-03-25 17:30:00,5,45.8,92.94,65.43,https://waterdata.usgs.gov/nc/nwis/uv?site_no=02088500
51,2089000,"NEUSE RIVER NEAR GOLDSBORO, NC",35.3375,-77.9975,3020202,EST,4090,cfs,2019-03-25 17:15:00,11.06,ft,2019-03-25 17:15:00,5,65.63,123.56,98.43,https://waterdata.usgs.gov/nc/nwis/uv?site_no=02089000
52,2089500,"NEUSE RIVER AT KINSTON, NC",35.2578,-77.5856,3020202,EST,4700,cfs,2019-03-25 17:15:00,11.25,ft,2019-03-25 17:15:00,5,61.41,114.08,102.07,https://waterdata.usgs.gov/nc/nwis/uv?site_no=02089500
53,2090380,"CONTENTNEA CREEK NEAR LUCAMA, NC",35.6911,-78.1097,3020203,EST,92.8,cfs,2019-03-25 17:30:00,3.04,ft,2019-03-25 17:30:00,4,18.69,53.95,36.07,https://waterdata.usgs.gov/nc/nwis/uv?site_no=02090380
54,2091000,"NAHUNTA SWAMP NEAR SHINE, NC",35.4889,-77.8061,3020203,EST,75.2,cfs,2019-03-25 17:45:00,3.67,ft,2019-03-25 17:45:00,5,51.14,101.42,67.66,https://waterdata.usgs.gov/nc/nwis/uv?site_no=02091000
55,2091500,"CONTENTNEA CREEK AT HOOKERTON, NC",35.4289,-77.5825,3020203,EST,1020,cfs,2019-03-25 16:00:00,10.7,ft,2019-03-25 17:00:00,5,49.4,99.03,78.08,https://waterdata.usgs.gov/nc/nwis/uv?site_no=02091500
56,2091814,"NEUSE RIVER NEAR FORT BARNWELL, NC",35.3139,-77.3028,3020202,EST,5830,cfs,2019-03-25 17:30:00,8.76,ft,2019-03-25 17:30:00,0,59.49,131.31,99.61,https://waterdata.usgs.gov/nc/nwis/uv?site_no=02091814
57,2092500,"TRENT RIVER NEAR TRENTON, NC",35.0642,-77.4614,3020204,EST,134,cfs,2019-03-25 17:45:00,5.53,ft,2019-03-25 17:45:00,5,35.08,66.67,47.13,https://waterdata.usgs.gov/nc/nwis/uv?site_no=02092500
58,2092554,"TRENT R AT POLLOCKSVILLE, NC",35.01,-77.2189,3020204,EST,446,cfs,2008-06-30 23:45:00,0.97,ft,2019-03-25 17:15:00,0,0.0,,,https://waterdata.usgs.gov/nc/nwis/uv?site_no=02092554
59,2092576,"TRENT RIVER AT US HIGHWAY 70 AT NEW BERN, NC",35.1026,-77.0367,3020204,EST,0,,0000-00-00 00:00:00,Dis,ft,2018-10-05 12:48:00,0,0.0,,,https://waterdata.usgs.gov/nc/nwis/uv?site_no=02092576
60,2092712,"BOGUE SOUND AT NC HIGHWAY 58 AT EMERALD ISLE, NC",34.6677,-77.0633,3020301,EST,0,,0000-00-00 00:00:00,Dis,ft,2018-09-24 12:24:00,0,0.0,,,https://waterdata.usgs.gov/nc/nwis/uv?site_no=02092712
61,2093000,"NEW RIVER NEAR GUM BRANCH, NC",34.8492,-77.5194,3030001,EST,64.4,cfs,2019-03-25 17:45:00,3.16,ft,2019-03-25 17:45:00,5,27.16,64.79,50.5,https://waterdata.usgs.gov/nc/nwis/uv?site_no=02093000
62,2093206,"INTRACOASTAL WTRWY AT NC HWY50/210 AT SURF CITY,NC",34.4308,-77.5493,3020302,EST,0,,0000-00-00 00:00:00,Dis,ft,2018-09-24 14:36:00,0,0.0,,,https://waterdata.usgs.gov/nc/nwis/uv?site_no=02093206
63,2093222,"BANKS CHANNEL AT US HWY 74 WRIGHTSVILLE BEACH, NC",34.2164,-77.7936,3020302,EST,0,,0000-00-00 00:00:00,Dis,ft,2018-09-24 13:00:00,0,0.0,,,https://waterdata.usgs.gov/nc/nwis/uv?site_no=02093222
64,2093800,"REEDY FORK NEAR OAK RIDGE, NC",36.1725,-79.9528,3030002,EST,24.2,cfs,2019-03-25 17:30:00,4.41,ft,2019-03-25 17:30:00,5,61.74,112.56,85.72,https://waterdata.usgs.gov/nc/nwis/uv?site_no=02093800
65,2093877,"BRUSH CREEK AT MUIRFIELD RD AT GREENSBORO, NC",36.1281,-79.9239,3030002,EST,7.36,cfs,2019-03-25 17:30:00,2.26,ft,2019-03-25 17:30:00,0,80.16,215.84,109.04,https://waterdata.usgs.gov/nc/nwis/uv?site_no=02093877
66,2094500,"REEDY FORK NEAR GIBSONVILLE, NC",36.1731,-79.6142,3030002,EST,98.6,cfs,2019-03-25 17:30:00,1.84,ft,2019-03-25 17:30:00,6,77.08,227.19,82.73,https://waterdata.usgs.gov/nc/nwis/uv?site_no=02094500
67,2094659,"SOUTH BUFFALO CREEK NR POMONA, NC",36.0494,-79.8553,3030002,EST,4.08,cfs,2019-03-25 17:30:00,1.13,ft,2019-03-25 17:30:00,0,57.59,133.77,54.4,https://waterdata.usgs.gov/nc/nwis/uv?site_no=02094659
68,2094770,"SOUTH BUFFALO CREEK AT US 220 AT GREENSBORO, NC",36.0381,-79.7997,3030002,EST,5.74,cfs,2019-03-25 17:45:00,2.24,ft,2019-03-25 17:45:00,0,36.99,79.17,33.9,https://waterdata.usgs.gov/nc/nwis/uv?site_no=02094770
69,2094775,"RYAN CREEK BELOW US 220 AT GREENSBORO, NC",36.0311,-79.7961,3030002,EST,2.3,cfs,2019-03-25 17:45:00,1.17,ft,2019-03-25 17:45:00,0,65.67,134.5,47.42,https://waterdata.usgs.gov/nc/nwis/uv?site_no=02094775
70,2095000,"SOUTH BUFFALO CR NEAR GREENSBORO, NC",36.06,-79.7258,3030002,EST,23.1,cfs,2019-03-25 17:30:00,2.89,ft,2019-03-25 17:30:00,5,55.11,105.0,38.27,https://waterdata.usgs.gov/nc/nwis/uv?site_no=02095000
71,2095181,"N BUFFALO CR AT WESTOVER TERRACE AT GREENSBORO, NC",36.0792,-79.8128,3030002,EST,6.72,cfs,2019-03-25 17:30:00,1.03,ft,2019-03-25 17:30:00,0,75.44,177.31,72.49,https://waterdata.usgs.gov/nc/nwis/uv?site_no=02095181
72,2095271,"NORTH BUFFALO CREEK AT CHURCH ST AT GREENSBORO, NC",36.0978,-79.7825,3030002,EST,8.65,cfs,2019-03-25 17:45:00,2.31,ft,2019-03-25 17:45:00,0,62.34,131.66,63.7,https://waterdata.usgs.gov/nc/nwis/uv?site_no=02095271
73,2095500,"NORTH BUFFALO CREEK NEAR GREENSBORO, NC",36.1206,-79.7081,3030002,EST,22,cfs,2019-03-25 17:30:00,2.03,ft,2019-03-25 17:30:00,2,4.42,50.11,33.27,https://waterdata.usgs.gov/nc/nwis/uv?site_no=02095500
74,2096500,"HAW RIVER AT HAW RIVER, NC",36.0872,-79.3661,3030002,EST,542,cfs,2019-03-25 17:45:00,3.8,ft,2019-03-25 17:45:00,5,53.47,108.29,57.11,https://waterdata.usgs.gov/nc/nwis/uv?site_no=02096500
75,2096846,"CANE CREEK NEAR ORANGE GROVE, NC",35.9872,-79.2061,3030002,EST,Rat,cfs,2019-03-25 17:45:00,1.36,ft,2019-03-25 17:45:00,0,3.33,11.88,5.82,https://waterdata.usgs.gov/nc/nwis/uv?site_no=02096846
76,2096960,"HAW RIVER NEAR BYNUM, NC",35.7653,-79.1358,3030002,EST,1650,cfs,2019-03-25 17:45:00,5.36,ft,2019-03-25 17:45:00,5,66.62,158.65,70.47,https://waterdata.usgs.gov/nc/nwis/uv?site_no=02096960
77,2097280,"THIRD FORK CR AT WOODCROFT PARKWAY NR BLANDS, NC",35.9226,-78.9524,3030002,EST,Rat,cfs,2019-03-25 17:00:00,1.34,ft,2019-03-25 17:00:00,0,75.45,485.71,54.47,https://waterdata.usgs.gov/nc/nwis/uv?site_no=02097280
78,2097314,"NEW HOPE CREEK NEAR BLANDS, NC",35.885,-78.9653,3030002,EST,112,cfs,2019-03-25 15:45:00,5.93,ft,2019-03-25 15:45:00,5,68.55,148.74,85.63,https://waterdata.usgs.gov/nc/nwis/uv?site_no=02097314
79,2097464,"MORGAN CREEK NEAR WHITE CROSS, NC",35.9236,-79.115,3030002,EST,10.4,cfs,2019-03-25 17:45:00,2.77,ft,2019-03-25 17:45:00,0,71.99,157.58,107.22,https://waterdata.usgs.gov/nc/nwis/uv?site_no=02097464
80,2097517,"MORGAN CREEK NEAR CHAPEL HILL, NC",35.8933,-79.0197,3030002,EST,58.2,cfs,2019-03-25 17:45:00,4.81,ft,2019-03-25 17:45:00,5,72.31,167.72,108.1,https://waterdata.usgs.gov/nc/nwis/uv?site_no=02097517
81,2098197," B. EVERETT JORDAN LAKE AT DAM NR MONCURE, NC",35.6547,-79.0683,3030002,EST,0,,0000-00-00 00:00:00,219.31,ft,2019-03-25 17:00:00,0,0.0,,,https://waterdata.usgs.gov/nc/nwis/uv?site_no=02098197
82,2098206,"HAW RIVER NEAR MONCURE, NC",35.6322,-79.06,3030002,EST,7930,cfs,2019-03-25 16:45:00,7.02,ft,2019-03-25 16:45:00,0,80.0,467.57,415.24,https://waterdata.usgs.gov/nc/nwis/uv?site_no=02098206
83,2099000,"EAST FORK DEEP RIVER NEAR HIGH POINT, NC",36.0372,-79.9456,3030003,EST,10.3,cfs,2019-03-25 17:30:00,2.28,ft,2019-03-25 17:30:00,5,42.27,93.64,58.66,https://waterdata.usgs.gov/nc/nwis/uv?site_no=02099000
84,2100500,"DEEP RIVER AT RAMSEUR, NC",35.7264,-79.6556,3030003,EST,428,cfs,2019-03-25 17:45:00,2.09,ft,2019-03-25 17:45:00,5,66.96,151.5,81.6,https://waterdata.usgs.gov/nc/nwis/uv?site_no=02100500
85,2101726,"ROCKY R AT US 64 NEAR SILER CITY, NC",35.7351,-79.4231,3030003,EST,66.3,cfs,2019-03-25 17:30:00,2.89,ft,2019-03-25 17:30:00,0,71.54,197.91,77.27,https://waterdata.usgs.gov/nc/nwis/uv?site_no=02101726
86,2101800,"TICK CREEK NEAR MOUNT VERNON SPRINGS, NC",35.6597,-79.4017,3030003,EST,13.4,cfs,2019-03-25 17:45:00,2.44,ft,2019-03-25 17:45:00,5,64.5,145.65,94.37,https://waterdata.usgs.gov/nc/nwis/uv?site_no=02101800
87,2102000,"DEEP RIVER AT MONCURE, NC",35.6269,-79.1161,3030003,EST,1640,cfs,2019-03-25 17:45:00,3.01,ft,2019-03-25 17:45:00,5,63.08,135.54,71.3,https://waterdata.usgs.gov/nc/nwis/uv?site_no=02102000
88,2102192,"BUCKHORN CREEK NR CORINTH, NC",35.5597,-78.9736,3030004,EST,64.8,cfs,2019-03-25 17:30:00,2.28,ft,2019-03-25 17:30:00,5,55.08,122.26,66.35,https://waterdata.usgs.gov/nc/nwis/uv?site_no=02102192
89,2102500,"CAPE FEAR RIVER AT LILLINGTON, NC",35.4061,-78.8133,3030004,EST,7920,cfs,2019-03-25 17:15:00,6.4,ft,2019-03-25 17:15:00,6,80.53,223.73,143.87,https://waterdata.usgs.gov/nc/nwis/uv?site_no=02102500
90,2102908,"FLAT CREEK NEAR INVERNESS, NC",35.1828,-79.1775,3030004,EST,14,cfs,2019-03-25 17:45:00,1.04,ft,2019-03-25 17:45:00,6,75.56,127.27,112.0,https://waterdata.usgs.gov/nc/nwis/uv?site_no=02102908
91,2103000,"LITTLE RIVER AT MANCHESTER, NC",35.1933,-78.9856,3030004,EST,528,cfs,2019-03-25 17:30:00,9.14,ft,2019-03-25 17:30:00,0,70.05,117.2,106.28,https://waterdata.usgs.gov/nc/nwis/uv?site_no=02103000
92,2104000,"CAPE FEAR RIVER AT FAYETTEVILLE, NC",35.0472,-78.8581,3030004,EST,0,,0000-00-00 00:00:00,18.12,ft,2019-03-25 17:00:00,0,0.0,,,https://waterdata.usgs.gov/nc/nwis/uv?site_no=02104000
93,2104220,"ROCKFISH CREEK AT RAEFORD, NC",34.9997,-79.2147,3030004,EST,159,cfs,2019-03-25 17:15:00,5.22,ft,2019-03-25 17:15:00,0,81.63,152.88,128.06,https://waterdata.usgs.gov/nc/nwis/uv?site_no=02104220
94,2105500,"CAPE FEAR R AT WILM O HUSKE LOCK NR TARHEEL, NC",34.8356,-78.8236,3030005,EST,9820,cfs,2019-03-25 17:00:00,5.34,ft,2019-03-25 17:00:00,6,78.55,196.79,128.52,https://waterdata.usgs.gov/nc/nwis/uv?site_no=02105500
95,2105544,"CAPE FEAR RIVER AT LOCK 2 NEAR ELIZABETHTOWN, NC",34.6325,-78.6028,3030005,EST,0,,0000-00-00 00:00:00,20.57,ft,2018-09-27 11:45:00,0,0.0,,,https://waterdata.usgs.gov/nc/nwis/uv?site_no=02105544
96,2105769,"CAPE FEAR R AT LOCK #1 NR KELLY, NC",34.4044,-78.2936,3030005,EST,13100,cfs,2019-03-25 17:45:00,19.32,ft,2019-03-25 17:45:00,6,81.32,199.54,141.26,https://waterdata.usgs.gov/nc/nwis/uv?site_no=02105769
97,2106500,"BLACK RIVER NEAR TOMAHAWK, NC",34.755,-78.2886,3030006,EST,783,cfs,2019-03-25 17:00:00,7.11,ft,2019-03-25 17:00:00,5,33.52,77.91,62.84,https://waterdata.usgs.gov/nc/nwis/uv?site_no=02106500
98,2108000,"NORTHEAST CAPE FEAR RIVER NEAR CHINQUAPIN, NC",34.8289,-77.8322,3030007,EST,591,cfs,2019-03-25 17:30:00,6.15,ft,2019-03-25 17:30:00,5,34.55,73.19,53.92,https://waterdata.usgs.gov/nc/nwis/uv?site_no=02108000
99,2108566,"NORTHEAST CAPE FEAR R NR BURGAW, NC",34.5983,-77.8753,3030007,EST,998,cfs,2005-12-12 23:45:00,3.04,ft,2019-03-25 17:30:00,0,55.47,111.57,111.57,https://waterdata.usgs.gov/nc/nwis/uv?site_no=02108566
100,2108619,"NORTHEAST CAPE FEAR R AT CASTLE HAYNE, NC",34.3646,-77.8977,3030007,EST,0,,0000-00-00 00:00:00,2.37,ft,2018-10-03 09:00:00,0,0.0,,,https://waterdata.usgs.gov/nc/nwis/uv?site_no=02108619
101,2109500,"WACCAMAW RIVER AT FREELAND, NC",34.095,-78.5483,3040206,EST,383,cfs,2019-03-25 17:30:00,7.79,ft,2019-03-25 17:30:00,4,11.24,41.74,30.48,https://waterdata.usgs.gov/nc/nwis/uv?site_no=02109500
102,2111000,"YADKIN RIVER AT PATTERSON, NC",35.9908,-81.5583,3040101,EST,68.2,cfs,2019-03-25 17:45:00,1.48,ft,2019-03-25 17:45:00,5,67.39,131.28,100.81,https://waterdata.usgs.gov/nc/nwis/uv?site_no=02111000
103,2111180,"ELK CREEK AT ELKVILLE, NC",36.0714,-81.4031,3040101,EST,123,cfs,2019-03-25 17:45:00,1.3,ft,2019-03-25 17:45:00,5,65.22,133.62,90.93,https://waterdata.usgs.gov/nc/nwis/uv?site_no=02111180
104,2111391,"W. KERR SCOTT RESERVOIR AT DAM NR WILKESBORO, NC",36.1336,-81.2267,3040101,EST,0,,0000-00-00 00:00:00,30.01,ft,2019-03-25 17:45:00,0,0.0,,,https://waterdata.usgs.gov/nc/nwis/uv?site_no=02111391
105,2111500,"REDDIES RIVER AT NORTH WILKESBORO, NC",36.175,-81.1689,3040101,EST,230,cfs,2019-03-25 17:00:00,1.74,ft,2019-03-25 17:00:00,6,80.6,155.93,127.14,https://waterdata.usgs.gov/nc/nwis/uv?site_no=02111500
106,2112000,"YADKIN RIVER AT WILKESBORO, NC",36.1525,-81.1456,3040101,EST,1270,cfs,2019-03-25 17:45:00,3.43,ft,2019-03-25 17:45:00,5,74.19,147.5,116.95,https://waterdata.usgs.gov/nc/nwis/uv?site_no=02112000
107,2112250,"YADKIN RIVER AT ELKIN, NC",36.2404,-80.8492,3040101,EST,2170,cfs,2019-03-25 17:00:00,3.96,ft,2019-03-25 17:00:00,6,80.56,156.12,126.41,https://waterdata.usgs.gov/nc/nwis/uv?site_no=02112250
108,2113850,"ARARAT RIVER AT ARARAT, NC",36.4044,-80.5617,3040101,EST,506,cfs,2019-03-25 17:30:00,1.64,ft,2019-03-25 17:30:00,6,81.15,150.15,111.78,https://waterdata.usgs.gov/nc/nwis/uv?site_no=02113850
109,2114450,"LITTLE YADKIN RIVER AT DALTON, NC",36.2992,-80.4147,3040101,EST,40.8,cfs,2019-03-25 17:15:00,0.79,ft,2019-03-25 17:15:00,5,57.64,113.33,68.77,https://waterdata.usgs.gov/nc/nwis/uv?site_no=02114450
110,2115360,"YADKIN RIVER AT ENON, NC",36.1317,-80.4439,3040101,EST,3650,cfs,2019-03-25 17:00:00,5.69,ft,2019-03-25 17:00:00,6,79.69,152.72,114.93,https://waterdata.usgs.gov/nc/nwis/uv?site_no=02115360
111,2116500,"YADKIN RIVER AT YADKIN COLLEGE, NC",35.8567,-80.3869,3040101,EST,4310,cfs,2019-03-25 17:00:00,3.53,ft,2019-03-25 17:00:00,6,77.48,145.61,99.28,https://waterdata.usgs.gov/nc/nwis/uv?site_no=02116500
112,2118000,"SOUTH YADKIN RIVER NEAR MOCKSVILLE, NC",35.845,-80.6589,3040102,EST,592,cfs,2019-03-25 17:00:00,3.51,ft,2019-03-25 17:00:00,6,81.13,172.09,111.14,https://waterdata.usgs.gov/nc/nwis/uv?site_no=02118000
113,2118500,"HUNTING CREEK NEAR HARMONY, NC",36.0006,-80.7456,3040102,EST,326,cfs,2019-03-25 17:30:00,1.86,ft,2019-03-25 17:30:00,6,80.52,153.77,122.62,https://waterdata.usgs.gov/nc/nwis/uv?site_no=02118500
114,2120780,"SECOND CREEK NEAR BARBER, NC",35.7176,-80.5961,3040102,EST,122,cfs,2019-03-25 17:00:00,3.11,ft,2019-03-25 17:00:00,6,77.22,133.85,79.44,https://waterdata.usgs.gov/nc/nwis/uv?site_no=02120780
115,2121500,"ABBOTTS CREEK AT LEXINGTON, NC",35.8069,-80.2347,3040103,EST,139,cfs,2019-03-25 17:30:00,4.17,ft,2019-03-25 17:30:00,0,64.33,118.8,47.01,https://waterdata.usgs.gov/nc/nwis/uv?site_no=02121500
116,2124080,"CLARKE CREEK NEAR HARRISBURG, NC",35.4142,-80.7519,3040105,EST,14.5,cfs,2019-03-25 17:20:00,3.2,ft,2019-03-25 17:20:00,0,77.08,140.1,116.84,https://waterdata.usgs.gov/nc/nwis/uv?site_no=02124080
117,2124269,"BACK CR AT SR1173 NEAR HARRISBURG, NC",35.3092,-80.6736,3040105,EST,3.63,cfs,2019-03-25 17:15:00,2.44,ft,2019-03-25 17:15:00,0,55.36,115.24,79.96,https://waterdata.usgs.gov/nc/nwis/uv?site_no=02124269
118,2126000,"ROCKY RIVER NEAR NORWOOD, NC",35.1489,-80.1758,3040105,EST,741,cfs,2019-03-25 17:00:00,1.7,ft,2019-03-25 17:00:00,5,39.35,85.07,28.98,https://waterdata.usgs.gov/nc/nwis/uv?site_no=02126000
119,2126375,"PEE DEE R AT PEE DEE REFUGE NR ANSONVILLE, NC",35.1032,-80.0459,3040104,EST,0,,0000-00-00 00:00:00,5.41,ft,2019-03-25 17:15:00,0,0.0,,,https://waterdata.usgs.gov/nc/nwis/uv?site_no=02126375
120,2128000,"LITTLE RIVER NEAR STAR, NC",35.3872,-79.8314,3040104,EST,138,cfs,2019-03-25 17:45:00,2.18,ft,2019-03-25 17:45:00,5,71.43,151.65,89.42,https://waterdata.usgs.gov/nc/nwis/uv?site_no=02128000
121,2129000,"PEE DEE R NR ROCKINGHAM, NC",34.9458,-79.8697,3040201,EST,8510,cfs,2019-03-25 17:00:00,4.2,ft,2019-03-25 17:00:00,5,43.86,91.6,63.02,https://waterdata.usgs.gov/nc/nwis/uv?site_no=02129000
122,2129375,"PEE DEE RIVER ABOVE JONES CREEK NEAR CORDOVA, NC",34.8663,-79.8789,3040201,EST,0,,0000-00-00 00:00:00,5.19,ft,2019-03-25 17:15:00,0,0.0,,,https://waterdata.usgs.gov/nc/nwis/uv?site_no=02129375
123,2132320,"BIG SHOE HEEL CREEK NR LAURINBURG, NC",34.7506,-79.3867,3040204,EST,145,cfs,2019-03-25 17:45:00,3.88,ft,2019-03-25 17:45:00,6,82.8,157.61,134.17,https://waterdata.usgs.gov/nc/nwis/uv?site_no=02132320
124,2133500,"DROWNING CREEK NEAR HOFFMAN, NC",35.0611,-79.4939,3040203,EST,364,cfs,2019-03-25 17:00:00,5.14,ft,2019-03-25 17:00:00,5,66.2,124.66,105.82,https://waterdata.usgs.gov/nc/nwis/uv?site_no=02133500
125,2133624,"LUMBER RIVER NEAR MAXTON, NC",34.7728,-79.3319,3040203,EST,803,cfs,2019-03-25 17:00:00,10.94,ft,2019-03-25 17:00:00,6,85.52,159.17,139.22,https://waterdata.usgs.gov/nc/nwis/uv?site_no=02133624
126,2134170,"LUMBER RIVER AT LUMBERTON, NC",34.6203,-79.0111,3040203,EST,995,cfs,2019-03-25 17:45:00,11.95,ft,2019-03-25 17:45:00,0,64.73,117.61,108.0,https://waterdata.usgs.gov/nc/nwis/uv?site_no=02134170
127,2134480,"BIG SWAMP NR TAR HEEL, NC",34.7103,-78.8364,3040203,EST,211,cfs,2019-03-25 17:00:00,10.16,ft,2019-03-25 17:00:00,5,41.15,95.91,65.4,https://waterdata.usgs.gov/nc/nwis/uv?site_no=02134480
128,2134500,"LUMBER RIVER AT BOARDMAN, NC",34.4425,-78.9603,3040203,EST,1600,cfs,2019-03-25 17:00:00,6.34,ft,2019-03-25 17:00:00,5,40.72,85.33,75.09,https://waterdata.usgs.gov/nc/nwis/uv?site_no=02134500
129,2137727,"CATAWBA R NR PLEASANT GARDENS, NC",35.6858,-82.0603,3050101,EST,376,cfs,2019-03-25 17:45:00,2.46,ft,2019-03-25 17:45:00,6,81.53,168.61,142.53,https://waterdata.usgs.gov/nc/nwis/uv?site_no=02137727
130,2138500,"LINVILLE RIVER NEAR NEBO, NC",35.7956,-81.8911,3050101,EST,128,cfs,2019-03-25 17:45:00,1.53,ft,2019-03-25 17:45:00,5,35.2,79.01,60.63,https://waterdata.usgs.gov/nc/nwis/uv?site_no=02138500
131,2138520,"CATAWBA R AT SR1223 BL LK JAMES NR BRIDGEWATER, NC",35.7404,-81.8347,3050101,EST,173,cfs,2019-03-25 17:15:00,1.88,ft,2019-03-25 17:15:00,0,12.69,25.26,19.96,https://waterdata.usgs.gov/nc/nwis/uv?site_no=02138520
132,2138816,"OLD CATAWBA R BL CATAWBA DAM NEAR BRIDGEWATER, NC",35.7345,-81.8874,3050101,EST,85.1,cfs,2019-03-25 17:45:00,1.83,ft,2019-03-25 16:45:00,0,0.0,,,https://waterdata.usgs.gov/nc/nwis/uv?site_no=02138816
133,2140991,"JOHNS RIVER AT ARNEYS STORE, NC",35.8336,-81.7119,3050101,EST,465,cfs,2019-03-25 17:15:00,2.76,ft,2019-03-25 17:15:00,5,68.72,132.1,106.16,https://waterdata.usgs.gov/nc/nwis/uv?site_no=02140991
134,2141500,"CATAWBA RIVER AT RHODHISS, NC",35.7726,-81.4307,3050101,EST,0,,0000-00-00 00:00:00,11.57,ft,2019-03-25 17:30:00,0,0.0,,,https://waterdata.usgs.gov/nc/nwis/uv?site_no=02141500
135,2142000,"LOWER LITTLE RIVER NR ALL HEALING SPRINGS, NC",35.9456,-81.2369,3050101,EST,52.2,cfs,2019-03-25 17:30:00,1.17,ft,2019-03-25 17:30:00,5,65.17,147.04,97.37,https://waterdata.usgs.gov/nc/nwis/uv?site_no=02142000
136,2142654,"MCDOWELL CREEK NR HUNTERSVILLE, NC",35.4069,-80.8906,3050101,EST,4.56,cfs,2019-03-25 17:25:00,1.76,ft,2019-03-25 17:25:00,0,36.18,71.92,28.97,https://waterdata.usgs.gov/nc/nwis/uv?site_no=02142654
137,2142900,"LONG CREEK NEAR PAW CREEK, NC",35.3286,-80.9097,3050101,EST,9.55,cfs,2019-03-25 17:45:00,1.45,ft,2019-03-25 17:45:00,5,37.57,79.58,52.19,https://waterdata.usgs.gov/nc/nwis/uv?site_no=02142900
138,2142914,"GUM BRANCH NEAR THRIFT, NC",35.2994,-80.9464,3050101,EST,3.54,cfs,2019-03-25 17:55:00,1.62,ft,2019-03-25 17:55:00,0,74.66,158.74,112.03,https://waterdata.usgs.gov/nc/nwis/uv?site_no=02142914
139,2143000,"HENRY FORK NEAR HENRY RIVER, NC",35.6844,-81.4033,3050102,EST,197,cfs,2019-03-25 17:30:00,1.92,ft,2019-03-25 17:30:00,5,73.76,148.12,115.17,https://waterdata.usgs.gov/nc/nwis/uv?site_no=02143000
140,2143040,"JACOB FORK AT RAMSEY, NC",35.5906,-81.5669,3050102,EST,63.3,cfs,2019-03-25 17:30:00,2.19,ft,2019-03-25 17:30:00,5,71.53,137.61,105.25,https://waterdata.usgs.gov/nc/nwis/uv?site_no=02143040
141,2143500,"INDIAN CREEK NEAR LABORATORY, NC",35.4206,-81.2653,3050102,EST,46.7,cfs,2019-03-25 17:00:00,1.24,ft,2019-03-25 17:00:00,3,5.93,52.89,39.73,https://waterdata.usgs.gov/nc/nwis/uv?site_no=02143500
142,2144000,"LONG CREEK NEAR BESSEMER CITY, NC",35.3064,-81.2347,3050102,EST,42.6,cfs,2019-03-25 17:30:00,1.97,ft,2019-03-25 17:30:00,5,71.23,121.71,101.31,https://waterdata.usgs.gov/nc/nwis/uv?site_no=02144000
143,2145000,"SOUTH FORK CATAWBA RIVER AT LOWELL, NC",35.2853,-81.1011,3050102,EST,1080,cfs,2019-03-25 17:15:00,3.91,ft,2019-03-25 17:15:00,5,68.48,127.36,91.37,https://waterdata.usgs.gov/nc/nwis/uv?site_no=02145000
144,2145268,"DUHARTS CREEK AT SR 2439 NEAR CRAMERTON, NC",35.2475,-81.0977,3050102,EST,5.66,cfs,2019-03-25 17:45:00,1.1,ft,2019-03-25 17:45:00,0,0.0,,,https://waterdata.usgs.gov/nc/nwis/uv?site_no=02145268
145,2146211,"IRWIN CR AT STATESVILLE AVE AT CHARLOTTE, NC",35.2619,-80.8369,3050103,EST,4.21,cfs,2019-03-25 17:55:00,2.09,ft,2019-03-25 17:55:00,5,60.12,101.45,64.67,https://waterdata.usgs.gov/nc/nwis/uv?site_no=02146211
146,2146285,"STEWART CREEK AT WEST MOREHEAD ST AT CHARLOTTE, NC",35.2283,-80.8692,3050103,EST,12.3,cfs,2019-03-25 17:55:00,1.92,ft,2019-03-25 17:55:00,0,57.92,107.89,110.61,https://waterdata.usgs.gov/nc/nwis/uv?site_no=02146285
147,2146300,"IRWIN CREEK NEAR CHARLOTTE, NC",35.1978,-80.9044,3050103,EST,26.1,cfs,2019-03-25 17:55:00,0.74,ft,2019-03-25 17:55:00,5,48.31,96.67,66.4,https://waterdata.usgs.gov/nc/nwis/uv?site_no=02146300
148,2146315,"TAGGART CREEK AT WEST BOULEVARD NR CHARLOTTE, NC",35.2067,-80.9219,3050103,EST,2.82,cfs,2019-03-25 17:55:00,1.48,ft,2019-03-25 17:55:00,0,75.65,137.56,117.5,https://waterdata.usgs.gov/nc/nwis/uv?site_no=02146315
149,2146330,"SUGAR CREEK AT ARROWOOD ROAD NEAR CHARLOTTE, NC",35.1397,-80.9111,3050103,EST,0,,0000-00-00 00:00:00,0.89,ft,2019-03-25 17:55:00,0,0.0,,,https://waterdata.usgs.gov/nc/nwis/uv?site_no=02146330
150,2146348,"COFFEY CREEK NR CHARLOTTE, NC",35.1458,-80.9269,3050103,EST,4.21,cfs,2019-03-25 17:55:00,2.15,ft,2019-03-25 17:55:00,0,61.5,117.27,91.72,https://waterdata.usgs.gov/nc/nwis/uv?site_no=02146348
151,2146381,"SUGAR CREEK AT NC 51 NEAR PINEVILLE, NC",35.0908,-80.8994,3050103,EST,56.5,cfs,2019-03-25 17:55:00,1.12,ft,2019-03-25 17:55:00,0,65.37,120.21,100.84,https://waterdata.usgs.gov/nc/nwis/uv?site_no=02146381
152,2146409,"LTL SUGAR CR AT MEDICAL CENTER DR AT CHARLOTTE, NC",35.2036,-80.8369,3050103,EST,8.71,cfs,2019-03-25 17:55:00,1.9,ft,2019-03-25 17:55:00,0,63.61,132.37,112.39,https://waterdata.usgs.gov/nc/nwis/uv?site_no=02146409
153,2146420,"LITTLE SUGAR CR AT HILLSIDE AVE, CHARLOTTE, NC",35.1792,-80.8464,3050103,EST,0,,0000-00-00 00:00:00,1.07,ft,2019-03-25 17:55:00,0,0.0,,,https://waterdata.usgs.gov/nc/nwis/uv?site_no=02146420
154,2146449,"BRIAR CREEK AT PROVIDENCE ROAD AT CHARLOTTE, NC",35.1825,-80.82,3050103,EST,0,,0000-00-00 00:00:00,1.34,ft,2019-03-25 17:55:00,0,0.0,,,https://waterdata.usgs.gov/nc/nwis/uv?site_no=02146449
155,2146470,"LITTLE HOPE CR AT SENECA PLACE AT CHARLOTTE, NC",35.1644,-80.8531,3050103,EST,2.03,cfs,2019-03-25 17:55:00,3.23,ft,2019-03-25 17:55:00,5,70.66,146.04,95.75,https://waterdata.usgs.gov/nc/nwis/uv?site_no=02146470
156,2146507,"LITTLE SUGAR C AT ARCHDALE DR AT CHARLOTTE, NC",35.1481,-80.8578,3050103,EST,43.5,cfs,2019-03-25 17:55:00,2.45,ft,2019-03-25 17:55:00,5,37.31,96.13,59.36,https://waterdata.usgs.gov/nc/nwis/uv?site_no=02146507
157,2146530,"LITTLE SUGAR CREEK AT PINEVILLE, NC",35.0853,-80.8822,3050103,EST,44.9,cfs,2019-03-25 17:55:00,1.8,ft,2019-03-25 17:55:00,0,52.67,101.58,88.89,https://waterdata.usgs.gov/nc/nwis/uv?site_no=02146530
158,2146562,"CAMPBELL CREEK NR CHARLOTTE, NC",35.1867,-80.7367,3050103,EST,2.49,cfs,2019-03-25 17:55:00,1.14,ft,2019-03-25 17:55:00,0,62.22,123.27,84.41,https://waterdata.usgs.gov/nc/nwis/uv?site_no=02146562
159,2146600,"MCALPINE CR AT SARDIS ROAD NEAR CHARLOTTE, NC",35.1378,-80.7675,3050103,EST,18.1,cfs,2019-03-25 17:55:00,1.12,ft,2019-03-25 17:55:00,5,35.5,82.27,38.11,https://waterdata.usgs.gov/nc/nwis/uv?site_no=02146600
160,2146614,"MCALPINE CR AT COLONY RD NEAR OLDE PROVIDENCE, NC",35.1183,-80.8067,3050103,EST,0,,0000-00-00 00:00:00,2.12,ft,2019-03-25 17:55:00,0,0.0,,,https://waterdata.usgs.gov/nc/nwis/uv?site_no=02146614
161,2146670,"FOUR MILE CREEK NEAR PINEVILLE, NC",35.0769,-80.8225,3050103,EST,10.7,cfs,2019-03-25 17:55:00,3.97,ft,2019-03-25 17:55:00,0,57.04,113.83,84.19,https://waterdata.usgs.gov/nc/nwis/uv?site_no=02146670
162,2146700,"MCMULLEN CR AT SHARON VIEW RD NEAR CHARLOTTE, NC",35.1408,-80.82,3050103,EST,2.73,cfs,2019-03-25 17:55:00,0.9,ft,2019-03-25 17:55:00,5,45.7,84.78,35.45,https://waterdata.usgs.gov/nc/nwis/uv?site_no=02146700
163,2146750,"MCALPINE CR BELOW MCMULLEN CR NR PINEVILLE, NC",35.0665,-80.8699,3050103,EST,41.8,cfs,2019-03-25 17:55:00,1.74,ft,2019-03-25 17:55:00,5,46.59,97.21,30.49,https://waterdata.usgs.gov/nc/nwis/uv?site_no=02146750
164,2149000,"COVE CREEK NEAR LAKE LURE, NC",35.4233,-82.1117,3050105,EST,251,cfs,2019-03-25 17:30:00,3.19,ft,2019-03-25 17:30:00,6,82.31,173.1,146.81,https://waterdata.usgs.gov/nc/nwis/uv?site_no=02149000
165,2150495,"SECOND BROAD RIVER NR LOGAN, NC",35.4044,-81.8725,3050105,EST,186,cfs,2019-03-25 17:45:00,3.23,ft,2019-03-25 17:45:00,0,95.0,184.16,178.47,https://waterdata.usgs.gov/nc/nwis/uv?site_no=02150495
166,2151500,"BROAD RIVER NEAR BOILING SPRINGS, NC",35.2108,-81.6975,3050105,EST,2430,cfs,2019-03-25 17:15:00,3.38,ft,2019-03-25 17:15:00,6,81.65,163.64,126.92,https://waterdata.usgs.gov/nc/nwis/uv?site_no=02151500
167,2152100,"FIRST BROAD RIVER NEAR CASAR, NC",35.4931,-81.6822,3050105,EST,142,cfs,2019-03-25 17:30:00,1.34,ft,2019-03-25 17:30:00,6,81.19,167.06,130.63,https://waterdata.usgs.gov/nc/nwis/uv?site_no=02152100
168,2152474,"FIRST BROAD RIVER AT LAWNDALE, NC",35.4153,-81.5617,3050105,EST,373,cfs,2019-03-25 17:15:00,1.9,ft,2019-03-25 17:15:00,0,88.43,194.27,180.93,https://waterdata.usgs.gov/nc/nwis/uv?site_no=02152474
169,3161000,"SOUTH FORK NEW RIVER NEAR JEFFERSON, NC",36.3933,-81.4069,5050001,EST,607,cfs,2019-03-25 17:30:00,2.77,ft,2019-03-25 17:30:00,5,74.06,126.72,104.77,https://waterdata.usgs.gov/nc/nwis/uv?site_no=03161000
170,3439000,"FRENCH BROAD RIVER AT ROSMAN, NC",35.1433,-82.8247,6010105,EST,352,cfs,2019-03-25 17:15:00,2.81,ft,2019-03-25 17:15:00,6,76.63,127.31,113.45,https://waterdata.usgs.gov/nc/nwis/uv?site_no=03439000
171,3441000,"DAVIDSON RIVER NEAR BREVARD, NC",35.2731,-82.7058,6010105,EST,188,cfs,2019-03-25 17:30:00,1.36,ft,2019-03-25 17:30:00,6,76.41,129.21,115.37,https://waterdata.usgs.gov/nc/nwis/uv?site_no=03441000
172,3443000,"FRENCH BROAD RIVER AT BLANTYRE, NC",35.2992,-82.6239,6010105,EST,1410,cfs,2019-03-25 17:30:00,9.36,ft,2019-03-25 17:30:00,5,73.21,130.56,108.96,https://waterdata.usgs.gov/nc/nwis/uv?site_no=03443000
173,3446000,"MILLS RIVER NEAR MILLS RIVER, NC",35.3981,-82.595,6010105,EST,235,cfs,2019-03-25 17:30:00,2.43,ft,2019-03-25 17:30:00,5,66.38,121.76,104.63,https://waterdata.usgs.gov/nc/nwis/uv?site_no=03446000
174,3447687,"FRENCH BROAD RIVER NEAR FLETCHER, NC",35.4292,-82.5525,6010105,EST,2350,cfs,2019-03-25 17:45:00,6.48,ft,2019-03-25 17:45:00,0,87.48,156.15,155.41,https://waterdata.usgs.gov/nc/nwis/uv?site_no=03447687
175,3450000,"BEETREE CREEK NEAR SWANNANOA, NC",35.6531,-82.4053,6010105,EST,10.9,cfs,2019-03-25 17:30:00,1.58,ft,2019-03-25 17:30:00,4,24.29,74.91,59.53,https://waterdata.usgs.gov/nc/nwis/uv?site_no=03450000
176,3451000,"SWANNANOA RIVER AT BILTMORE, NC",35.5683,-82.5447,6010105,EST,227,cfs,2019-03-25 17:00:00,2.17,ft,2019-03-25 17:00:00,5,60.75,113.5,89.08,https://waterdata.usgs.gov/nc/nwis/uv?site_no=03451000
177,3451500,"FRENCH BROAD RIVER AT ASHEVILLE, NC",35.6089,-82.5781,6010105,EST,3060,cfs,2019-03-25 17:00:00,2.8,ft,2019-03-25 17:00:00,5,70.97,130.21,103.67,https://waterdata.usgs.gov/nc/nwis/uv?site_no=03451500
178,3453000,"IVY RIVER NEAR MARSHALL, NC",35.7697,-82.6208,6010105,EST,196,cfs,2019-03-25 17:30:00,2.88,ft,2019-03-25 17:30:00,5,51.73,102.89,72.72,https://waterdata.usgs.gov/nc/nwis/uv?site_no=03453000
179,3453500,"FRENCH BROAD RIVER AT MARSHALL, NC",35.7864,-82.6608,6010105,EST,3510,cfs,2019-03-25 17:00:00,2.9,ft,2019-03-25 17:00:00,5,67.21,121.88,99.75,https://waterdata.usgs.gov/nc/nwis/uv?site_no=03453500
180,3454500,"FRENCH BROAD RIVER AT HOT SPRINGS, NC",35.8899,-82.821,6010105,EST,3770,cfs,2019-03-25 17:15:00,3.7,ft,2019-03-25 17:15:00,0,63.16,127.8,104.96,https://waterdata.usgs.gov/nc/nwis/uv?site_no=03454500
181,3455500,"W F PIGEON R ABOVE LAKE LOGAN NR HAZELWOOD, NC",35.3961,-82.9375,6010106,EST,112,cfs,2019-03-25 17:30:00,1.49,ft,2019-03-25 17:30:00,5,46.9,94.51,83.35,https://waterdata.usgs.gov/nc/nwis/uv?site_no=03455500
182,3455773,"LAKE LOGAN AT DAM NEAR HAZELWOOD, NC",35.4225,-82.9222,6010106,EST,0,,0000-00-00 00:00:00,53.58,ft,2019-03-25 17:30:00,0,0.0,,,https://waterdata.usgs.gov/nc/nwis/uv?site_no=03455773
183,3456100,"WEST FORK PIGEON RIVER AT BETHEL, NC",35.4639,-82.9,6010106,EST,205,cfs,2019-03-25 17:30:00,1.53,ft,2019-03-25 17:30:00,5,61.76,118.5,104.38,https://waterdata.usgs.gov/nc/nwis/uv?site_no=03456100
184,3456500,"EAST FORK PIGEON RIVER NEAR CANTON, NC",35.4617,-82.8697,6010106,EST,152,cfs,2019-03-25 17:30:00,1.6,ft,2019-03-25 17:30:00,5,44.88,91.84,76.95,https://waterdata.usgs.gov/nc/nwis/uv?site_no=03456500
185,3456991,"PIGEON RIVER NEAR CANTON, NC",35.5219,-82.8481,6010106,EST,438,cfs,2019-03-25 17:00:00,2.27,ft,2019-03-25 17:00:00,5,59.55,110.47,91.96,https://waterdata.usgs.gov/nc/nwis/uv?site_no=03456991
186,3459500,"PIGEON RIVER NEAR HEPCO, NC",35.635,-82.99,6010106,EST,1020,cfs,2019-03-25 17:30:00,3,ft,2019-03-25 17:30:00,5,65.56,118.26,99.8,https://waterdata.usgs.gov/nc/nwis/uv?site_no=03459500
187,3460000,"CATALOOCHEE CREEK NEAR CATALOOCHEE, NC",35.6672,-83.0728,6010106,EST,159,cfs,2019-03-25 17:30:00,2.8,ft,2019-03-25 17:30:00,5,61.14,107.43,88.79,https://waterdata.usgs.gov/nc/nwis/uv?site_no=03460000
188,3460795,"PIGEON R BL POWER PLANT NR WATERVILLE, NC",35.7836,-83.1119,6010106,EST,1450,cfs,2019-03-25 17:15:00,6.32,ft,2019-03-25 17:15:00,0,66.14,113.73,111.78,https://waterdata.usgs.gov/nc/nwis/uv?site_no=03460795
189,3463300,"SOUTH TOE RIVER NEAR CELO, NC",35.8314,-82.1842,6010108,EST,129,cfs,2019-03-25 17:30:00,1.07,ft,2019-03-25 17:30:00,5,44.33,91.81,67.2,https://waterdata.usgs.gov/nc/nwis/uv?site_no=03463300
190,3479000,"WATAUGA RIVER NEAR SUGAR GROVE, NC",36.2392,-81.8222,6010103,EST,181,cfs,2019-03-25 17:30:00,2.07,ft,2019-03-25 17:30:00,5,45.63,87.02,65.96,https://waterdata.usgs.gov/nc/nwis/uv?site_no=03479000
191,3500000,"LITTLE TENNESSEE RIVER NEAR PRENTISS, NC",35.15,-83.3797,6010202,EST,677,cfs,2019-03-25 17:30:00,3.06,ft,2019-03-25 17:30:00,6,82.51,141.34,128.21,https://waterdata.usgs.gov/nc/nwis/uv?site_no=03500000
192,3500240,"CARTOOGECHAYE CREEK NEAR FRANKLIN, NC",35.1589,-83.3942,6010202,EST,249,cfs,2019-03-25 17:45:00,2.72,ft,2019-03-25 17:45:00,6,79.26,147.77,124.84,https://waterdata.usgs.gov/nc/nwis/uv?site_no=03500240
193,3501975,"LITTLE TENNESSEE RIVER AB NC HWY 28 AT IOTLA, NC",35.2329,-83.3915,6010202,EST,1350,cfs,2019-03-25 17:15:00,3.42,ft,2019-03-25 17:15:00,0,83.33,197.08,179.57,https://waterdata.usgs.gov/nc/nwis/uv?site_no=03501975
194,3503000,"LITTLE TENNESSEE RIVER AT NEEDMORE, NC",35.3364,-83.5269,6010202,EST,1770,cfs,2019-03-25 17:15:00,3.69,ft,2019-03-25 17:15:00,6,76.1,137.21,118.1,https://waterdata.usgs.gov/nc/nwis/uv?site_no=03503000
195,3504000,"NANTAHALA RIVER NEAR RAINBOW SPRINGS, NC",35.1275,-83.6186,6010202,EST,316,cfs,2019-03-25 17:30:00,1.83,ft,2019-03-25 17:30:00,5,70.62,124.9,110.99,https://waterdata.usgs.gov/nc/nwis/uv?site_no=03504000
196,3505550,"NANTAHALA RIVER NEAR HEWITT, NC",35.305,-83.6522,6010202,EST,955,cfs,2019-03-25 17:30:00,3.14,ft,2019-03-25 17:30:00,0,92.86,245.5,226.06,https://waterdata.usgs.gov/nc/nwis/uv?site_no=03505550
197,3508050,"TUCKASEGEE RIVER AT SR 1172 NR CULLOWHEE, NC",35.2878,-83.1439,6010203,EST,784,cfs,2019-03-25 17:15:00,6.06,ft,2019-03-25 17:15:00,0,92.86,180.65,213.26,https://waterdata.usgs.gov/nc/nwis/uv?site_no=03508050
198,3510577,"TUCKASEGEE RIVER AT BARKER'S CREEK, NC",35.3844,-83.2917,6010203,EST,1560,cfs,2019-03-25 17:15:00,5.1,ft,2019-03-25 17:15:00,0,92.86,216.37,198.05,https://waterdata.usgs.gov/nc/nwis/uv?site_no=03510577
199,3512000,"OCONALUFTEE RIVER AT BIRDTOWN, NC",35.4614,-83.3536,6010203,EST,713,cfs,2019-03-25 17:00:00,2.18,ft,2019-03-25 17:00:00,5,59.27,113.81,95.17,https://waterdata.usgs.gov/nc/nwis/uv?site_no=03512000
200,3513000,"TUCKASEGEE RIVER AT BRYSON CITY, NC",35.4275,-83.4469,6010203,EST,2560,cfs,2019-03-25 17:15:00,3.56,ft,2019-03-25 17:15:00,5,68.17,126.11,106.17,https://waterdata.usgs.gov/nc/nwis/uv?site_no=03513000
201,3550000,"VALLEY RIVER AT TOMOTLA, NC",35.1389,-83.9806,6020002,EST,361,cfs,2019-03-25 17:30:00,2.83,ft,2019-03-25 17:30:00,5,59.72,111.25,91.72,https://waterdata.usgs.gov/nc/nwis/uv?site_no=03550000
202,204382800,"PASQUOTANK RIVER NEAR SOUTH MILLS, NC",36.4214,-76.3425,3010205,EST,201,cfs,2019-03-25 17:15:00,6.65,ft,2019-03-25 17:15:00,0,69.76,134.9,124.3,https://waterdata.usgs.gov/nc/nwis/uv?site_no=0204382800
203,207730290,"AFTERBAY RESERVOIR AT DAM NR MCGEHEES MILL, NC",36.5225,-78.9975,3010104,EST,0,,0000-00-00 00:00:00,379.26,ft,2019-03-25 17:45:00,0,0.0,,,https://waterdata.usgs.gov/nc/nwis/uv?site_no=0207730290
204,208062765,"ROANOKE RIVER AT HALIFAX, NC",36.3311,-77.5803,3010107,EST,0,,0000-00-00 00:00:00,27.04,ft,2019-03-25 17:15:00,0,0.0,,,https://waterdata.usgs.gov/nc/nwis/uv?site_no=0208062765
205,208111310,"CASHIE RIVER AT SR1257 NEAR WINDSOR, NC",36.0478,-76.9842,3010107,EST,100,cfs,2019-03-25 17:15:00,4.57,ft,2019-03-25 17:15:00,5,52.51,105.49,70.4,https://waterdata.usgs.gov/nc/nwis/uv?site_no=0208111310
206,208114150,"ROANOKE RIVER AT NC 45 NR WESTOVER, NC",35.915,-76.7228,3010107,EST,0,,0000-00-00 00:00:00,1.57,ft,2019-03-25 17:45:00,0,0.0,,,https://waterdata.usgs.gov/nc/nwis/uv?site_no=0208114150
207,208250410,"TAR RIVER BELOW DAM NEAR LANGLEY CROSSROADS, NC",35.8999,-77.8841,3020101,EST,397,cfs,2019-03-25 17:45:00,3.51,ft,2019-03-25 17:45:00,0,22.94,66.78,53.56,https://waterdata.usgs.gov/nc/nwis/uv?site_no=0208250410
208,208458892,"LAKE MATTAMUSKEET W OF NC HWY 94 NR FAIRFIELD, NC",35.5058,-76.2539,3020105,EST,0,,0000-00-00 00:00:00,2.46,ft,2019-03-25 17:15:00,0,0.0,,,https://waterdata.usgs.gov/nc/nwis/uv?site_no=0208458892
209,208458893,"LAKE MATTAMUSKEET E OF NC HWY 94 NR FAIRFIELD, NC",35.5064,-76.1839,3020105,EST,0,,0000-00-00 00:00:00,2.49,ft,2019-03-25 17:15:00,0,0.0,,,https://waterdata.usgs.gov/nc/nwis/uv?site_no=0208458893
210,208521324,"LITTLE RIVER AT SR1461 NEAR ORANGE FACTORY, NC",36.1417,-78.9192,3020201,EST,158,cfs,2019-03-25 17:15:00,2.42,ft,2019-03-25 17:15:00,6,81.22,259.44,136.61,https://waterdata.usgs.gov/nc/nwis/uv?site_no=0208521324
211,208524090,"MOUNTAIN CREEK AT SR1617 NR BAHAMA, NC",36.1497,-78.8967,3020201,EST,7.98,cfs,2019-03-25 17:15:00,4.32,ft,2019-03-25 17:15:00,0,68.94,154.65,85.07,https://waterdata.usgs.gov/nc/nwis/uv?site_no=0208524090
212,208524975,"LITTLE R BL LITTLE R TRIB AT FAIRNTOSH, NC",36.1133,-78.8597,3020201,EST,91.5,cfs,2019-03-25 17:45:00,2.24,ft,2019-03-25 17:45:00,0,75.73,198.05,88.25,https://waterdata.usgs.gov/nc/nwis/uv?site_no=0208524975
213,208675010,"ELLERBE CREEK AT CLUB BOULEVARD AT DURHAM, NC",36.0194,-78.8948,3020201,EST,1.3,cfs,2019-03-25 17:30:00,0.45,ft,2019-03-25 17:30:00,0,30.8,71.04,21.63,https://waterdata.usgs.gov/nc/nwis/uv?site_no=0208675010
214,208700550,"LITTLE LICK CREEK AT NC HWY 98 AT OAK GROVE, NC",35.9823,-78.8245,3020201,EST,0,,0000-00-00 00:00:00,1.6,ft,2019-03-25 17:00:00,0,0.0,,,https://waterdata.usgs.gov/nc/nwis/uv?site_no=0208700550
215,208706575,"BEAVERDAM CREEK AT DAM NEAR CREEDMOOR, NC",36.0236,-78.6892,3020201,EST,0,,0000-00-00 00:00:00,251.9,ft,2019-03-25 17:45:00,0,0.0,,,https://waterdata.usgs.gov/nc/nwis/uv?site_no=0208706575
216,208726005,"CRABTREE CR AT EBENEZER CHURCH RD NR RALEIGH, NC",35.8453,-78.7244,3020201,EST,57.3,cfs,2019-03-25 17:45:00,4.07,ft,2019-03-25 17:45:00,0,61.17,115.99,54.19,https://waterdata.usgs.gov/nc/nwis/uv?site_no=0208726005
217,208731190,"CRABTREE CREEK AT ANDERSON DRIVE AT RALEIGH, NC",35.8211,-78.6342,3020201,EST,0,,0000-00-00 00:00:00,3.18,ft,2019-03-25 17:00:00,0,0.0,,,https://waterdata.usgs.gov/nc/nwis/uv?site_no=0208731190
218,208732534,"PIGEON HOUSE CR AT CAMERON VILLAGE AT RALEIGH, NC",35.7875,-78.6547,3020201,EST,0.18,cfs,2019-03-25 17:35:00,1.53,ft,2019-03-25 17:35:00,0,81.11,138.46,120.0,https://waterdata.usgs.gov/nc/nwis/uv?site_no=0208732534
219,208732885,"MARSH CREEK NEAR NEW HOPE, NC",35.8169,-78.5931,3020201,EST,3.4,cfs,2019-03-25 17:30:00,3.33,ft,2019-03-25 17:30:00,5,38.33,86.29,65.26,https://waterdata.usgs.gov/nc/nwis/uv?site_no=0208732885
220,208734210,"WALNUT CREEK AT TRAILWOOD DRIVE AT RALEIGH, NC",35.7684,-78.691,3020201,EST,0,,0000-00-00 00:00:00,4.08,ft,2019-03-25 17:50:00,0,0.0,,,https://waterdata.usgs.gov/nc/nwis/uv?site_no=0208734210
221,208734795,"WALNUT CREEK AT SOUTH WILMINGTON ST AT RALEIGH, NC",35.7569,-78.6406,3020201,EST,0,,0000-00-00 00:00:00,0.96,ft,2019-03-25 17:00:00,0,0.0,,,https://waterdata.usgs.gov/nc/nwis/uv?site_no=0208734795
222,208735012,"ROCKY BRANCH BELOW PULLEN DRIVE AT RALEIGH, NC",35.78,-78.6664,3020201,EST,0.59,cfs,2019-03-25 17:30:00,4.76,ft,2019-03-25 17:30:00,0,56.25,109.26,74.68,https://waterdata.usgs.gov/nc/nwis/uv?site_no=0208735012
223,208735460,"WALNUT CREEK AT SOUTH STATE STREET AT RALEIGH, NC",35.7579,-78.6238,3020201,EST,0,,0000-00-00 00:00:00,2.27,ft,2019-03-25 17:00:00,0,0.0,,,https://waterdata.usgs.gov/nc/nwis/uv?site_no=0208735460
224,208758850,"SWIFT CREEK NEAR MCCULLARS CROSSROADS, NC",35.6936,-78.6922,3020201,EST,17.3,cfs,2019-03-25 17:45:00,1.91,ft,2019-03-25 17:45:00,5,41.49,82.97,43.92,https://waterdata.usgs.gov/nc/nwis/uv?site_no=0208758850
225,208773375,"SWIFT CREEK AT SR1555 NEAR CLAYTON, NC",35.575,-78.4986,3020201,EST,73.1,cfs,2019-03-25 17:15:00,2.74,ft,2019-03-25 17:15:00,0,57.18,143.61,82.98,https://waterdata.usgs.gov/nc/nwis/uv?site_no=0208773375
226,209205053,"SWIFT CREEK AT HWY 43 NR STREETS FERRY, NC",35.2308,-77.1139,3020202,EST,285,cfs,2008-06-29 23:45:00,1.57,ft,2019-03-25 17:15:00,0,43.42,96.61,54.78,https://waterdata.usgs.gov/nc/nwis/uv?site_no=0209205053
227,209270825,"BOGUE SOUND AT SR 1182 AT ATLANTIC BEACH, NC",34.7114,-76.7368,3020301,EST,0,,0000-00-00 00:00:00,-1.01,ft,2018-09-24 13:24:00,0,0.0,,,https://waterdata.usgs.gov/nc/nwis/uv?site_no=0209270825
228,209303201,"NEW RIVER AT OLD BRIDGE STREET AT JACKSONVILLE, NC",34.7512,-77.4342,3020302,EST,0,,0000-00-00 00:00:00,Dis,ft,2018-10-04 12:42:00,0,0.0,,,https://waterdata.usgs.gov/nc/nwis/uv?site_no=0209303201
229,209399200,"HORSEPEN CREEK AT US 220 NR GREENSBORO, NC",36.1378,-79.86,3030002,EST,15,cfs,2019-03-25 17:45:00,1.84,ft,2019-03-25 17:45:00,0,75.74,139.79,86.86,https://waterdata.usgs.gov/nc/nwis/uv?site_no=0209399200
230,209553650,"BUFFALO CREEK AT SR2819 NR MCLEANSVILLE, NC",36.1281,-79.6617,3030002,EST,116,cfs,2019-03-25 17:30:00,2.53,ft,2019-03-25 17:30:00,0,65.79,136.07,52.59,https://waterdata.usgs.gov/nc/nwis/uv?site_no=0209553650
231,209722970,"SANDY CREEK AT CORNWALLIS RD NEAR DURHAM, NC",35.9832,-78.9568,3030002,EST,4.2,cfs,2019-03-25 17:45:00,2.15,ft,2019-03-25 17:45:00,0,74.45,203.88,96.55,https://waterdata.usgs.gov/nc/nwis/uv?site_no=0209722970
232,209725960,"THIRD FORK CREEK AT M.L. KING PARKWAY AT DURHAM,NC",35.9512,-78.9269,3030002,EST,0,,0000-00-00 00:00:00,1.61,ft,2019-03-25 17:50:00,0,0.0,,,https://waterdata.usgs.gov/nc/nwis/uv?site_no=0209725960
233,209734440,"BOLIN CREEK AT VILLAGE DRIVE AT CHAPEL HILL, NC",35.9223,-79.066,3030002,EST,7.75,cfs,2019-03-25 17:15:00,2.02,ft,2019-03-25 17:15:00,0,70.71,193.75,142.73,https://waterdata.usgs.gov/nc/nwis/uv?site_no=0209734440
234,209741387,"NORTHEAST CREEK TRIB AT SR1182 NR LOWES GROVE, NC",35.9154,-78.8935,3030002,EST,0,,0000-00-00 00:00:00,0.54,ft,2019-03-25 17:45:00,0,0.0,,,https://waterdata.usgs.gov/nc/nwis/uv?site_no=0209741387
235,209741955,"NORTHEAST CREEK AT SR1100 NR GENLEE, NC",35.8722,-78.9131,3030002,EST,13,cfs,2019-03-25 17:45:00,4.36,ft,2019-03-25 17:45:00,5,48.5,97.74,26.02,https://waterdata.usgs.gov/nc/nwis/uv?site_no=0209741955
236,209782609,"WHITE OAK CR AT MOUTH NEAR GREEN LEVEL, NC",35.7603,-78.9203,3030002,EST,1.02,cfs,2019-03-25 17:45:00,3.32,ft,2019-03-25 17:45:00,0,5.26,20.2,9.61,https://waterdata.usgs.gov/nc/nwis/uv?site_no=0209782609
237,210166029,"ROCKY R AT SR1300 NR CRUTCHFIELD CROSSROADS, NC",35.8069,-79.5275,3030003,EST,5.37,cfs,2019-03-25 17:30:00,1.16,ft,2019-03-25 17:30:00,5,69.46,129.71,56.95,https://waterdata.usgs.gov/nc/nwis/uv?site_no=0210166029
238,210869230,"NE CAPE FEAR R AT US HWY 74/133 AT WILMINGTON, NC",34.2518,-77.9501,3030007,EST,0,,0000-00-00 00:00:00,Dis,ft,2018-10-04 17:36:00,0,0.0,,,https://waterdata.usgs.gov/nc/nwis/uv?site_no=0210869230
239,211139110,"YADKIN RIVER BL W KERR SCOTT DAM NEAR BUCK, NC",36.1361,-81.2233,3040101,EST,946,cfs,2019-03-25 17:00:00,2.81,ft,2019-03-25 17:00:00,0,82.06,191.5,152.29,https://waterdata.usgs.gov/nc/nwis/uv?site_no=0211139110
240,212378405,"PEE DEE R AT HWY731 BL LK TILLERY NR NORWOOD, NC",35.2007,-80.0618,3040104,EST,14800,cfs,2019-03-25 17:15:00,7.91,ft,2019-03-25 17:15:00,0,80.0,306.1,329.25,https://waterdata.usgs.gov/nc/nwis/uv?site_no=0212378405
241,212393300,"W. BR ROCKY R B MTH OF S PRONG R NR CORNELIUS, NC",35.4678,-80.7903,3040105,EST,21.2,cfs,2019-03-25 17:35:00,3.59,ft,2019-03-25 17:35:00,0,83.17,152.52,141.71,https://waterdata.usgs.gov/nc/nwis/uv?site_no=0212393300
242,212414900,"MALLARD CR BL STONY CR NR HARRISBURG, NC",35.3328,-80.7158,3040105,EST,25.8,cfs,2019-03-25 17:55:00,3.02,ft,2019-03-25 17:55:00,0,79.14,141.76,125.92,https://waterdata.usgs.gov/nc/nwis/uv?site_no=0212414900
243,212419274,"CODDLE CR AT SR 1612 NEAR DAVIDSON, NC",35.5039,-80.7364,3040105,EST,30.3,cfs,2019-03-25 17:00:00,2.24,ft,2019-03-25 17:00:00,0,93.75,195.48,181.65,https://waterdata.usgs.gov/nc/nwis/uv?site_no=0212419274
244,212427947,"REEDY CREEK AT SR 2803 NR CHARLOTTE, NC",35.2564,-80.7006,3040105,EST,2.26,cfs,2019-03-25 17:20:00,2.05,ft,2019-03-25 17:20:00,0,74.55,180.8,141.25,https://waterdata.usgs.gov/nc/nwis/uv?site_no=0212427947
245,212430293,"REEDY CREEK BELOW I-485 NR PINE RIDGE, NC",35.2586,-80.6628,3040105,EST,16.8,cfs,2019-03-25 17:35:00,2.42,ft,2019-03-25 17:35:00,0,83.25,203.88,170.39,https://waterdata.usgs.gov/nc/nwis/uv?site_no=0212430293
246,212430653,"MCKEE CREEK AT SR2804 NR WILGROVE, NC",35.2539,-80.6481,3040105,EST,4.06,cfs,2019-03-25 17:35:00,1.82,ft,2019-03-25 17:35:00,0,73.59,173.5,116.67,https://waterdata.usgs.gov/nc/nwis/uv?site_no=0212430653
247,212433550,"ROCKY R AB IRISH BUFFALO CR NR ROCKY RIVER, NC",35.3217,-80.5408,3040105,EST,206,cfs,2019-03-25 17:15:00,2.37,ft,2019-03-25 17:15:00,0,74.15,156.06,120.78,https://waterdata.usgs.gov/nc/nwis/uv?site_no=0212433550
248,212466000,"CLEAR CREEK AT SR3181 NR MINT HILL, NC",35.2083,-80.58,3040105,EST,6.48,cfs,2019-03-25 17:45:00,1.53,ft,2019-03-25 17:45:00,0,61.86,127.81,86.4,https://waterdata.usgs.gov/nc/nwis/uv?site_no=0212466000
249,212467451,"GOOSE CR AT SR1524 NEAR INDIAN TRAIL, NC",35.1304,-80.6312,3040105,EST,5.09,cfs,2019-03-25 17:15:00,0.48,ft,2019-03-25 17:15:00,0,63.4,138.32,94.43,https://waterdata.usgs.gov/nc/nwis/uv?site_no=0212467451
250,212467595,"GOOSE CREEK AT SR1525 NR INDIAN TRAIL, NC",35.125,-80.6028,3040105,EST,6.23,cfs,2019-03-25 17:30:00,1.34,ft,2019-03-25 17:30:00,0,70.96,131.71,90.42,https://waterdata.usgs.gov/nc/nwis/uv?site_no=0212467595
251,212880025,"PEE DEE RIVER BELOW POWERHOUSE DAM NR PEE DEE, NC",34.9835,-79.8776,3040104,EST,0,,0000-00-00 00:00:00,7.43,ft,2019-03-25 17:00:00,0,0.0,,,https://waterdata.usgs.gov/nc/nwis/uv?site_no=0212880025
252,214196125,"CATAWBA RIVER AT NC HIGHWAY 16 NR MILLERSVILLE, NC",35.8225,-81.1905,3050101,EST,0,,0000-00-00 00:00:00,6.75,ft,2019-03-25 17:30:00,0,0.0,,,https://waterdata.usgs.gov/nc/nwis/uv?site_no=0214196125
253,214244102,"CATAWBA RIVER BL LOOKOUT SHOALS DAM NR SHARON, NC",35.7572,-81.0891,3050101,EST,0,,0000-00-00 00:00:00,12.17,ft,2019-03-25 17:30:00,0,0.0,,,https://waterdata.usgs.gov/nc/nwis/uv?site_no=0214244102
254,214264790,"CATAWBA R AT RR BRIDGE AB NC 73 AT COWANS FORD, NC",35.4277,-80.9573,3050101,EST,0,,0000-00-00 00:00:00,6.36,ft,2019-03-25 17:30:00,0,0.0,,,https://waterdata.usgs.gov/nc/nwis/uv?site_no=0214264790
255,214265808,"TORRENCE CR AT BRADFORD HILL LN NR HUNTERSVLLE, NC",35.4036,-80.8828,3050101,EST,5.08,cfs,2019-03-25 17:40:00,1.58,ft,2019-03-25 17:40:00,0,61.79,132.29,76.39,https://waterdata.usgs.gov/nc/nwis/uv?site_no=0214265808
256,214265828,"MCDOWELL CR TRIB AT SR2131 NR HICKS CROSSROADS, NC",35.4018,-80.9175,3050101,EST,0.49,cfs,2019-03-25 17:35:00,1.84,ft,2019-03-25 17:35:00,0,0.0,,,https://waterdata.usgs.gov/nc/nwis/uv?site_no=0214265828
257,214266000,"MCDOWELL CREEK NR CHARLOTTE, NC (CSW10)",35.3897,-80.921,3050101,EST,18.3,cfs,2019-03-25 17:50:00,3.79,ft,2019-03-25 17:50:00,0,71.38,129.33,87.27,https://waterdata.usgs.gov/nc/nwis/uv?site_no=0214266000
258,214266080,"GAR CREEK AT SR2074 NR CROFT, NC",35.3614,-80.8975,3050101,EST,3.22,cfs,2019-03-25 17:05:00,1.3,ft,2019-03-25 17:05:00,0,88.65,242.11,211.84,https://waterdata.usgs.gov/nc/nwis/uv?site_no=0214266080
259,214267602,"CATAWBA RIVER DNSTRM DECK MTN IS DAM NR MTN IS, NC",35.334,-80.9864,3050101,EST,0,,0000-00-00 00:00:00,8.89,ft,2019-03-25 17:45:00,0,0.0,,,https://waterdata.usgs.gov/nc/nwis/uv?site_no=0214267602
260,214269560,"KILLIAN CREEK NEAR MARIPOSA, NC",35.4342,-81.03,3050101,EST,35.3,cfs,2019-03-25 17:15:00,3.35,ft,2019-03-25 17:15:00,0,61.84,113.87,102.08,https://waterdata.usgs.gov/nc/nwis/uv?site_no=0214269560
261,214291555,"LONG CREEK NR RHYNE, NC",35.3006,-80.9728,3050101,EST,23.1,cfs,2019-03-25 17:55:00,1.73,ft,2019-03-25 17:55:00,0,75.11,157.68,108.1,https://waterdata.usgs.gov/nc/nwis/uv?site_no=0214291555
262,214295600,"PAW CR AT WILKINSON BLVD NR CHARLOTTE, NC",35.2403,-80.9744,3050101,EST,9.05,cfs,2019-03-25 17:55:00,1.74,ft,2019-03-25 17:55:00,0,78.84,154.7,131.16,https://waterdata.usgs.gov/nc/nwis/uv?site_no=0214295600
263,214297160,"BEAVERDAM CREEK AB WINDY GAP ROAD NR SHOPTON, NC",35.1697,-80.9878,3050101,EST,2.45,cfs,2019-03-25 17:30:00,0.77,ft,2019-03-25 17:30:00,0,75.0,180.15,131.02,https://waterdata.usgs.gov/nc/nwis/uv?site_no=0214297160
264,214627970,"STEWART CREEK AT STATE ST AT CHARLOTTE, NC",35.2403,-80.8683,3050103,EST,11.9,cfs,2019-03-25 17:55:00,1.51,ft,2019-03-25 17:55:00,0,75.0,129.63,117.24,https://waterdata.usgs.gov/nc/nwis/uv?site_no=0214627970
265,214640410,"LITTLE SUGAR CR BL 36TH STREET NEAR CHARLOTTE, NC",35.2503,-80.8083,3050103,EST,0,,0000-00-00 00:00:00,0.56,ft,2019-03-25 17:55:00,0,0.0,,,https://waterdata.usgs.gov/nc/nwis/uv?site_no=0214640410
266,214642825,"BRIAR CREEK NEAR CHARLOTTE, NC",35.2361,-80.7711,3050103,EST,2.06,cfs,2019-03-25 17:55:00,1.32,ft,2019-03-25 17:55:00,0,35.15,71.28,69.36,https://waterdata.usgs.gov/nc/nwis/uv?site_no=0214642825
267,214643770,"BRIAR CR AT INDEPENDENCE BLVD AT CHARLOTTE, NC",35.2108,-80.8008,3050103,EST,0,,0000-00-00 00:00:00,1.05,ft,2019-03-25 17:55:00,0,0.0,,,https://waterdata.usgs.gov/nc/nwis/uv?site_no=0214643770
268,214643820,"EDWARDS BRANCH AT SHEFFIELD DR AT CHARLOTTE, NC",35.2033,-80.7722,3050103,EST,0.48,cfs,2019-03-25 17:55:00,0.85,ft,2019-03-25 17:55:00,0,54.67,141.18,64.86,https://waterdata.usgs.gov/nc/nwis/uv?site_no=0214643820
269,214643860,"BRIAR CR BL EDWARDS BRANCH NEAR CHARLOTTE, NC",35.2061,-80.8058,3050103,EST,0,,0000-00-00 00:00:00,1.5,ft,2019-03-25 17:55:00,0,0.0,,,https://waterdata.usgs.gov/nc/nwis/uv?site_no=0214643860
270,214645022,"BRIAR CR ABOVE COLONY RD AT CHARLOTTE, NC",35.1753,-80.8308,3050103,EST,12.7,cfs,2019-03-25 17:55:00,2.42,ft,2019-03-25 17:55:00,0,68.7,135.97,119.14,https://waterdata.usgs.gov/nc/nwis/uv?site_no=0214645022
271,214645075,"TRIB TO BRIAR CREEK AT COLONY RD AT CHARLOTTE, NC",35.1689,-80.8308,3050103,EST,0.33,cfs,2019-03-25 17:55:00,0.98,ft,2019-03-25 17:55:00,0,40.0,76.74,67.35,https://waterdata.usgs.gov/nc/nwis/uv?site_no=0214645075
272,214645080,"TRIB TO BRIAR CR AT RUNNYMEDE LN AT CHARLOTTE, NC",35.1669,-80.8367,3050103,EST,0.24,cfs,2019-03-25 17:55:00,1.17,ft,2019-03-25 17:55:00,0,7.69,42.86,42.86,https://waterdata.usgs.gov/nc/nwis/uv?site_no=0214645080
273,214655255,"MCALPINE CREEK AT SR3150 NR IDLEWILD, NC",35.1758,-80.7192,3050103,EST,3.13,cfs,2019-03-25 17:15:00,1.74,ft,2019-03-25 17:15:00,0,60.61,114.23,80.88,https://waterdata.usgs.gov/nc/nwis/uv?site_no=0214655255
274,214657975,"IRVINS CREEK AT SR3168 NR CHARLOTTE, NC",35.1586,-80.7133,3050103,EST,3.96,cfs,2019-03-25 17:55:00,1.26,ft,2019-03-25 17:55:00,0,75.16,137.02,112.82,https://waterdata.usgs.gov/nc/nwis/uv?site_no=0214657975
275,214668150,"MCMULLEN CR ABOVE LINCREST PLACE AT CHARLOTTE, NC",35.1703,-80.7856,3050103,EST,0,,0000-00-00 00:00:00,1.3,ft,2019-03-25 17:55:00,0,0.0,,,https://waterdata.usgs.gov/nc/nwis/uv?site_no=0214668150
276,214678175,"STEELE CREEK AT SR1441 NR PINEVILLE, NC",35.105,-80.9536,3050103,EST,2.56,cfs,2019-03-25 17:55:00,1.09,ft,2019-03-25 17:55:00,0,48.75,98.46,69.95,https://waterdata.usgs.gov/nc/nwis/uv?site_no=0214678175
277,214685800,"SIX MILE CREEK NEAR PINEVILLE, NC",35.0104,-80.8285,3050103,EST,13.7,cfs,2019-03-25 17:40:00,2.62,ft,2019-03-25 17:40:00,0,72.9,190.81,116.0,https://waterdata.usgs.gov/nc/nwis/uv?site_no=0214685800
278,344894205,"NORTH FORK SWANNANOA RIVER NEAR WALKERTOWN, NC",35.6853,-82.3328,6010105,EST,35,cfs,2019-03-25 17:45:00,1.49,ft,2019-03-25 17:45:00,0,27.33,75.59,69.35,https://waterdata.usgs.gov/nc/nwis/uv?site_no=0344894205
279,345577330,"WEST FORK PIGEON RIVER NEAR RETREAT, NC",35.4267,-82.9197,6010106,EST,129,cfs,2019-03-25 17:30:00,1.69,ft,2019-03-25 17:30:00,5,53.53,104.45,95.27,https://waterdata.usgs.gov/nc/nwis/uv?site_no=0345577330
280,347927162,"BUCKEYE CR ABOVE BUCKEYE LAKE NEAR CANNON GAP, NC",36.2174,-81.9081,6010103,EST,0,,0000-00-00 00:00:00,1.45,ft,2019-03-25 17:40:00,0,0.0,,,https://waterdata.usgs.gov/nc/nwis/uv?site_no=0347927162
281,347927164,"BUCKEYE CR BELOW BUCKEYE LAKE NEAR CANNON GAP, NC",36.22,-81.9076,6010103,EST,0,,0000-00-00 00:00:00,0.93,ft,2019-03-25 17:40:00,0,0.0,,,https://waterdata.usgs.gov/nc/nwis/uv?site_no=0347927164
282,351706800,"CHEOAH RIVER NR BEARPEN GAP NR TAPOCO, NC",35.4383,-83.9189,6010204,EST,511,cfs,2019-03-25 17:00:00,4.02,ft,2019-03-25 17:00:00,0,93.32,273.26,267.18,https://waterdata.usgs.gov/nc/nwis/uv?site_no=0351706800
283,344950077495695,"NE CAPE FEAR RIVER AT NC HWY 41 NR CHINQUAPIN, NC",34.8306,-77.8322,3030007,EST,0,,0000-00-00 00:00:00,Dis,ft,2018-09-26 09:30:00,0,0.0,,,https://waterdata.usgs.gov/nc/nwis/uv?site_no=344950077495695
