,site_no,station_nm,dec_lat_va,dec_long_va,huc_cd,tz_cd,flow,flow_unit,flow_dt,stage,stage_unit,stage_dt,class,percentile,percent_median,percent_mean,url
0,2043433,"CURRITUCK SOUND ON EAST BANK AT COROLLA, NC",36.3744,-75.8344,3010205,EST,0,,0000-00-00 00:00:00,0.33,ft,2019-04-11 12:45:00,0,0.0,,,https://waterdata.usgs.gov/nc/nwis/uv?site_no=02043433
1,2053200,"POTECASI CREEK NEAR UNION, NC",36.3708,-77.0256,3010204,EST,220,cfs,2019-04-11 12:00:00,6.11,ft,2019-04-11 12:00:00,5,58.85,137.5,68.98,https://waterdata.usgs.gov/nc/nwis/uv?site_no=02053200
2,2053500,"AHOSKIE CREEK AT AHOSKIE, NC",36.2803,-76.9994,3010203,EST,59,cfs,2019-04-11 12:30:00,2.83,ft,2019-04-11 12:30:00,6,76.57,192.18,79.79,https://waterdata.usgs.gov/nc/nwis/uv?site_no=02053500
3,2068500,"DAN RIVER NEAR FRANCISCO, NC",36.515,-80.3031,3010103,EST,241,cfs,2019-04-11 12:30:00,1.9,ft,2019-04-11 12:30:00,5,64.82,120.5,98.86,https://waterdata.usgs.gov/nc/nwis/uv?site_no=02068500
4,2069000,"DAN RIVER AT PINE HALL, NC",36.3193,-80.05,3010103,EST,803,cfs,2019-04-11 12:15:00,3.6,ft,2019-04-11 12:15:00,0,67.44,127.06,107.73,https://waterdata.usgs.gov/nc/nwis/uv?site_no=02069000
5,2070500,"MAYO RIVER NEAR PRICE, NC",36.5339,-79.9914,3010103,EST,471,cfs,2019-04-11 12:45:00,2.07,ft,2019-04-11 12:45:00,6,78.79,143.16,118.12,https://waterdata.usgs.gov/nc/nwis/uv?site_no=02070500
6,2071000,"DAN RIVER NEAR WENTWORTH, NC",36.4125,-79.8261,3010103,EST,1750,cfs,2019-04-11 12:45:00,3.4,ft,2019-04-11 12:45:00,6,75.75,156.25,100.62,https://waterdata.usgs.gov/nc/nwis/uv?site_no=02071000
7,2074000,"SMITH RIVER AT EDEN, NC",36.5256,-79.7656,3010103,EST,1010,cfs,2019-04-11 12:00:00,3.23,ft,2019-04-11 12:00:00,5,71.66,160.06,116.13,https://waterdata.usgs.gov/nc/nwis/uv?site_no=02074000
8,2077200,"HYCO CREEK NEAR LEASBURG, NC",36.3978,-79.1967,3010104,EST,82,cfs,2019-04-11 12:45:00,25.31,ft,2019-04-11 12:45:00,6,88.59,292.86,152.42,https://waterdata.usgs.gov/nc/nwis/uv?site_no=02077200
9,2077280,"HYCO LAKE AT DAM NR ROXBORO, NC",36.5117,-79.0472,3010104,EST,0,,0000-00-00 00:00:00,10.81,ft,2019-04-11 12:45:00,0,0.0,,,https://waterdata.usgs.gov/nc/nwis/uv?site_no=02077280
10,2077303,"HYCO R BL ABAY D NR MCGEHEES MILL, NC",36.5225,-78.9975,3010104,EST,Eqp,cfs,2019-04-11 12:45:00,Eqp,ft,2019-04-11 12:45:00,0,7.57,12.05,3.9,https://waterdata.usgs.gov/nc/nwis/uv?site_no=02077303
11,2077670,"MAYO CR NR BETHEL HILL, NC",36.5408,-78.8719,3010104,EST,94.1,cfs,2019-04-11 12:45:00,2.96,ft,2019-04-11 12:45:00,6,81.58,238.23,121.58,https://waterdata.usgs.gov/nc/nwis/uv?site_no=02077670
12,2080500,"ROANOKE RIVER AT ROANOKE RAPIDS, NC",36.46,-77.6336,3010107,EST,13800,cfs,2019-04-11 12:45:00,7.05,ft,2019-04-11 12:45:00,5,68.5,156.02,126.62,https://waterdata.usgs.gov/nc/nwis/uv?site_no=02080500
13,2081000,"ROANOKE RIVER NEAR SCOTLAND NECK, NC",36.2092,-77.3839,3010107,EST,0,,0000-00-00 00:00:00,19.91,ft,2019-04-11 12:00:00,0,0.0,,,https://waterdata.usgs.gov/nc/nwis/uv?site_no=02081000
14,2081022,"ROANOKE RIVER NEAR OAK CITY, NC",36.0136,-77.2153,3010107,EST,1850,cfs,2007-09-16 23:45:00,17.75,ft,2019-04-11 12:45:00,0,0.0,,,https://waterdata.usgs.gov/nc/nwis/uv?site_no=02081022
15,2081028,"ROANOKE RIVER AT HAMILTON, NC",35.9475,-77.2025,3010107,EST,0,,0000-00-00 00:00:00,15.33,ft,2019-04-11 12:30:00,0,0.0,,,https://waterdata.usgs.gov/nc/nwis/uv?site_no=02081028
16,2081054,"ROANOKE RIVER AT WILLIAMSTON, NC",35.8597,-77.0403,3010107,EST,1530,cfs,2007-11-12 23:45:00,10.9,ft,2019-04-11 12:00:00,0,0.0,,,https://waterdata.usgs.gov/nc/nwis/uv?site_no=02081054
17,2081094,"ROANOKE RIVER AT JAMESVILLE, NC",35.8131,-76.8928,3010107,EST,0,,0000-00-00 00:00:00,3,ft,2019-04-11 12:00:00,0,0.0,,,https://waterdata.usgs.gov/nc/nwis/uv?site_no=02081094
18,2081500,"TAR RIVER NEAR TAR RIVER, NC",36.1942,-78.5831,3020101,EST,193,cfs,2019-04-11 12:30:00,2.96,ft,2019-04-11 12:30:00,6,81.31,204.23,89.94,https://waterdata.usgs.gov/nc/nwis/uv?site_no=02081500
19,2081747,"TAR R AT US 401 AT LOUISBURG, NC",36.0931,-78.2961,3020101,EST,622,cfs,2019-04-11 12:45:00,7.77,ft,2019-04-11 12:45:00,6,82.19,204.61,105.55,https://waterdata.usgs.gov/nc/nwis/uv?site_no=02081747
20,2081942,"TAR RIVER AT NC-581 NEAR SPRING HOPE, NC",35.8821,-78.0895,3020101,EST,1540,cfs,2019-04-11 12:15:00,6.98,ft,2019-04-11 12:15:00,0,85.71,453.61,276.81,https://waterdata.usgs.gov/nc/nwis/uv?site_no=02081942
21,2082585,"TAR RIVER AT NC 97 AT ROCKY MOUNT, NC",35.9547,-77.7872,3020101,EST,3020,cfs,2019-04-11 12:00:00,10.16,ft,2019-04-11 12:00:00,7,90.44,394.26,234.09,https://waterdata.usgs.gov/nc/nwis/uv?site_no=02082585
22,2082770,"SWIFT CREEK AT HILLIARDSTON, NC",36.1122,-77.92,3020101,EST,349,cfs,2019-04-11 12:45:00,4.24,ft,2019-04-11 12:45:00,6,87.88,251.08,167.8,https://waterdata.usgs.gov/nc/nwis/uv?site_no=02082770
23,2082950,"LITTLE FISHING CREEK NEAR WHITE OAK, NC",36.1833,-77.8761,3020102,EST,239,cfs,2019-04-11 12:00:00,4.46,ft,2019-04-11 12:00:00,6,81.37,178.36,116.61,https://waterdata.usgs.gov/nc/nwis/uv?site_no=02082950
24,2083000,"FISHING CREEK NEAR ENFIELD, NC",36.1506,-77.6931,3020102,EST,1050,cfs,2019-04-11 12:00:00,8.59,ft,2019-04-11 12:00:00,6,82.32,221.99,145.59,https://waterdata.usgs.gov/nc/nwis/uv?site_no=02083000
25,2083500,"TAR RIVER AT TARBORO, NC",35.8944,-77.5331,3020103,EST,4820,cfs,2019-04-11 12:15:00,11.74,ft,2019-04-11 12:15:00,6,76.24,216.14,135.0,https://waterdata.usgs.gov/nc/nwis/uv?site_no=02083500
26,2084000,"TAR RIVER AT GREENVILLE, NC",35.6167,-77.3728,3020103,EST,5800,cfs,2019-04-11 12:00:00,10.11,ft,2019-04-11 12:00:00,0,90.33,258.35,192.45,https://waterdata.usgs.gov/nc/nwis/uv?site_no=02084000
27,2084160,"CHICOD CR AT SR1760 NEAR SIMPSON, NC",35.5617,-77.2308,3020103,EST,71.4,cfs,2019-04-11 12:45:00,8.5,ft,2019-04-11 12:45:00,6,80.71,405.68,117.36,https://waterdata.usgs.gov/nc/nwis/uv?site_no=02084160
28,2084472,"PAMLICO RIVER AT WASHINGTON, NC",35.5433,-77.0619,3020104,EST,4390,cfs,2006-09-30 23:45:00,1.72,ft,2019-04-11 12:00:00,0,56.25,112.85,75.85,https://waterdata.usgs.gov/nc/nwis/uv?site_no=02084472
29,2084557,"VAN SWAMP NEAR HOKE, NC",35.7308,-76.7461,3020104,EST,41.1,cfs,2019-04-11 12:30:00,1.81,ft,2019-04-11 12:30:00,5,66.53,200.0,116.0,https://waterdata.usgs.gov/nc/nwis/uv?site_no=02084557
30,2085000,"ENO RIVER AT HILLSBOROUGH, NC",36.0711,-79.0956,3020201,EST,135,cfs,2019-04-11 12:45:00,3.01,ft,2019-04-11 12:45:00,6,83.03,272.73,128.6,https://waterdata.usgs.gov/nc/nwis/uv?site_no=02085000
31,2085039,ENO RIVER AT COLE MILL RD NR HUCKLEBERRY SPRING,36.0594,-78.9781,3020201,EST,0,,0000-00-00 00:00:00,3.34,ft,2019-04-11 12:00:00,0,0.0,,,https://waterdata.usgs.gov/nc/nwis/uv?site_no=02085039
32,2085070,"ENO RIVER NEAR DURHAM, NC",36.0722,-78.9078,3020201,EST,277,cfs,2019-04-11 12:15:00,2.95,ft,2019-04-11 12:15:00,7,90.21,307.78,157.77,https://waterdata.usgs.gov/nc/nwis/uv?site_no=02085070
33,2085500,"FLAT RIVER AT BAHAMA, NC",36.1828,-78.8789,3020201,EST,228,cfs,2019-04-11 12:45:00,2.07,ft,2019-04-11 12:45:00,6,80.93,220.29,106.83,https://waterdata.usgs.gov/nc/nwis/uv?site_no=02085500
34,2086500,"FLAT RIVER AT DAM NEAR BAHAMA, NC",36.1486,-78.8289,3020201,EST,280,cfs,2019-04-11 12:45:00,2.36,ft,2019-04-11 12:45:00,6,78.11,259.26,96.13,https://waterdata.usgs.gov/nc/nwis/uv?site_no=02086500
35,2086624,"KNAP OF REEDS CREEK NEAR BUTNER, NC",36.1279,-78.7983,3020201,EST,44.5,cfs,2019-04-11 12:00:00,2.74,ft,2019-04-11 12:00:00,0,81.31,258.72,104.12,https://waterdata.usgs.gov/nc/nwis/uv?site_no=02086624
36,2086849,"ELLERBE CREEK NEAR GORMAN, NC",36.0593,-78.8325,3020201,EST,31.6,cfs,2019-04-11 12:00:00,1.76,ft,2019-04-11 12:00:00,0,74.12,155.67,110.76,https://waterdata.usgs.gov/nc/nwis/uv?site_no=02086849
37,2087182,"FALLS LAKE ABOVE DAM NR FALLS, NC",35.9411,-78.5833,3020201,EST,0,,0000-00-00 00:00:00,252.76,ft,2019-04-11 12:00:00,0,0.0,,,https://waterdata.usgs.gov/nc/nwis/uv?site_no=02087182
38,2087183,"NEUSE RIVER NEAR FALLS, NC",35.94,-78.5808,3020201,EST,2810,cfs,2019-04-11 12:15:00,3.37,ft,2019-04-11 12:15:00,6,80.17,667.46,273.58,https://waterdata.usgs.gov/nc/nwis/uv?site_no=02087183
39,2087275,"CRABTREE CREEK AT HWY 70 AT RALEIGH, NC",35.8381,-78.6742,3020201,EST,490,cfs,2019-04-11 12:00:00,7.45,ft,2019-04-11 12:00:00,0,90.79,626.6,290.85,https://waterdata.usgs.gov/nc/nwis/uv?site_no=02087275
40,2087322,"CRABTREE CR AT OLD WAKE FOREST RD AT RALEIGH, NC",35.8158,-78.6261,3020201,EST,0,,0000-00-00 00:00:00,3.49,ft,2019-04-11 12:00:00,0,0.0,,,https://waterdata.usgs.gov/nc/nwis/uv?site_no=02087322
41,2087324,"CRABTREE CREEK AT US 1 AT RALEIGH, NC",35.8111,-78.6108,3020201,EST,446,cfs,2019-04-11 12:15:00,3.06,ft,2019-04-11 12:15:00,0,90.36,492.82,242.72,https://waterdata.usgs.gov/nc/nwis/uv?site_no=02087324
42,2087337,"WALNUT CREEK AT BUCK JONES ROAD AT RALEIGH, NC",35.7729,-78.737,3020201,EST,0,,0000-00-00 00:00:00,1.1,ft,2019-04-11 12:50:00,0,0.0,,,https://waterdata.usgs.gov/nc/nwis/uv?site_no=02087337
43,2087339,"LAKE JOHNSON ABOVE DAM AT RALEIGH, NC",35.7627,-78.7056,3020201,EST,0,,0000-00-00 00:00:00,343.36,ft,2019-04-11 12:00:00,0,0.0,,,https://waterdata.usgs.gov/nc/nwis/uv?site_no=02087339
44,2087359,"WALNUT CREEK AT SUNNYBROOK DRIVE NR RALEIGH, NC",35.7583,-78.5831,3020201,EST,41.7,cfs,2019-04-11 12:30:00,2.89,ft,2019-04-11 12:30:00,0,87.36,251.2,99.12,https://waterdata.usgs.gov/nc/nwis/uv?site_no=02087359
45,2087500,"NEUSE RIVER NEAR CLAYTON, NC",35.6472,-78.4053,3020201,EST,3600,cfs,2019-04-11 12:15:00,6.46,ft,2019-04-11 12:15:00,6,80.63,474.31,220.69,https://waterdata.usgs.gov/nc/nwis/uv?site_no=02087500
46,2087570,"NEUSE RIVER AT SMITHFIELD, NC",35.5125,-78.3494,3020201,EST,298,cfs,1991-09-30 23:30:00,14.54,ft,2019-04-11 12:15:00,0,7.04,27.34,15.3,https://waterdata.usgs.gov/nc/nwis/uv?site_no=02087570
47,2087580,"SWIFT CREEK NEAR APEX, NC",35.7189,-78.7522,3020201,EST,32.4,cfs,2019-04-11 12:45:00,2.7,ft,2019-04-11 12:45:00,0,80.95,439.62,150.91,https://waterdata.usgs.gov/nc/nwis/uv?site_no=02087580
48,2088000,"MIDDLE CREEK NEAR CLAYTON, NC",35.5708,-78.5906,3020201,EST,190,cfs,2019-04-11 12:00:00,3.56,ft,2019-04-11 12:00:00,6,82.48,245.16,130.27,https://waterdata.usgs.gov/nc/nwis/uv?site_no=02088000
49,2088383,"LITTLE RIVER NEAR ZEBULON, NC",35.8219,-78.3522,3020201,EST,107,cfs,2019-04-11 12:15:00,2.42,ft,2019-04-11 12:15:00,0,90.0,204.98,220.35,https://waterdata.usgs.gov/nc/nwis/uv?site_no=02088383
50,2088500,"LITTLE RIVER NEAR PRINCETON, NC",35.5114,-78.1603,3020201,EST,882,cfs,2019-04-11 12:30:00,5.02,ft,2019-04-11 12:30:00,7,91.5,412.15,255.73,https://waterdata.usgs.gov/nc/nwis/uv?site_no=02088500
51,2089000,"NEUSE RIVER NEAR GOLDSBORO, NC",35.3375,-77.9975,3020202,EST,5310,cfs,2019-04-11 12:15:00,12.71,ft,2019-04-11 12:15:00,6,76.41,242.47,149.41,https://waterdata.usgs.gov/nc/nwis/uv?site_no=02089000
52,2089500,"NEUSE RIVER AT KINSTON, NC",35.2578,-77.5856,3020202,EST,4220,cfs,2019-04-11 12:15:00,10.51,ft,2019-04-11 12:15:00,5,65.68,156.3,103.64,https://waterdata.usgs.gov/nc/nwis/uv?site_no=02089500
53,2090380,"CONTENTNEA CREEK NEAR LUCAMA, NC",35.6911,-78.1097,3020203,EST,608,cfs,2019-04-11 12:30:00,6.04,ft,2019-04-11 12:30:00,7,92.8,519.66,297.05,https://waterdata.usgs.gov/nc/nwis/uv?site_no=02090380
54,2091000,"NAHUNTA SWAMP NEAR SHINE, NC",35.4889,-77.8061,3020203,EST,188,cfs,2019-04-11 12:45:00,4.95,ft,2019-04-11 12:45:00,6,83.89,338.74,163.46,https://waterdata.usgs.gov/nc/nwis/uv?site_no=02091000
55,2091500,"CONTENTNEA CREEK AT HOOKERTON, NC",35.4289,-77.5825,3020203,EST,1570,cfs,2019-04-11 11:45:00,11.9,ft,2019-04-11 12:45:00,6,78.23,201.54,139.66,https://waterdata.usgs.gov/nc/nwis/uv?site_no=02091500
56,2091814,"NEUSE RIVER NEAR FORT BARNWELL, NC",35.3139,-77.3028,3020202,EST,4800,cfs,2019-04-11 12:30:00,7.95,ft,2019-04-11 12:30:00,0,58.36,117.65,91.71,https://waterdata.usgs.gov/nc/nwis/uv?site_no=02091814
57,2092500,"TRENT RIVER NEAR TRENTON, NC",35.0642,-77.4614,3020204,EST,166,cfs,2019-04-11 12:45:00,6.01,ft,2019-04-11 12:45:00,5,64.93,141.88,75.24,https://waterdata.usgs.gov/nc/nwis/uv?site_no=02092500
58,2092554,"TRENT R AT POLLOCKSVILLE, NC",35.01,-77.2189,3020204,EST,446,cfs,2008-06-30 23:45:00,1.69,ft,2019-04-11 12:15:00,0,0.0,,,https://waterdata.usgs.gov/nc/nwis/uv?site_no=02092554
59,2093000,"NEW RIVER NEAR GUM BRANCH, NC",34.8492,-77.5194,3030001,EST,73.3,cfs,2019-04-11 12:45:00,3.57,ft,2019-04-11 12:45:00,5,56.75,111.91,51.59,https://waterdata.usgs.gov/nc/nwis/uv?site_no=02093000
60,2093800,"REEDY FORK NEAR OAK RIDGE, NC",36.1725,-79.9528,3030002,EST,28.8,cfs,2019-04-11 12:30:00,4.56,ft,2019-04-11 12:30:00,5,73.42,144.0,102.24,https://waterdata.usgs.gov/nc/nwis/uv?site_no=02093800
61,2093877,"BRUSH CREEK AT MUIRFIELD RD AT GREENSBORO, NC",36.1281,-79.9239,3030002,EST,9.34,cfs,2019-04-11 12:30:00,2.38,ft,2019-04-11 12:30:00,0,81.69,265.34,137.56,https://waterdata.usgs.gov/nc/nwis/uv?site_no=02093877
62,2094500,"REEDY FORK NEAR GIBSONVILLE, NC",36.1731,-79.6142,3030002,EST,233,cfs,2019-04-11 12:30:00,2.7,ft,2019-04-11 12:30:00,6,82.98,665.71,135.91,https://waterdata.usgs.gov/nc/nwis/uv?site_no=02094500
63,2094659,"SOUTH BUFFALO CREEK NR POMONA, NC",36.0494,-79.8553,3030002,EST,4.58,cfs,2019-04-11 12:30:00,1.15,ft,2019-04-11 12:30:00,0,80.02,180.31,39.83,https://waterdata.usgs.gov/nc/nwis/uv?site_no=02094659
64,2094770,"SOUTH BUFFALO CREEK AT US 220 AT GREENSBORO, NC",36.0381,-79.7997,3030002,EST,7.15,cfs,2019-04-11 12:45:00,2.28,ft,2019-04-11 12:45:00,0,70.46,119.97,34.05,https://waterdata.usgs.gov/nc/nwis/uv?site_no=02094770
65,2094775,"RYAN CREEK BELOW US 220 AT GREENSBORO, NC",36.0311,-79.7961,3030002,EST,2.78,cfs,2019-04-11 12:45:00,1.19,ft,2019-04-11 12:45:00,0,80.06,198.57,57.44,https://waterdata.usgs.gov/nc/nwis/uv?site_no=02094775
66,2095000,"SOUTH BUFFALO CR NEAR GREENSBORO, NC",36.06,-79.7258,3030002,EST,29.3,cfs,2019-04-11 12:30:00,2.99,ft,2019-04-11 12:30:00,5,68.25,134.4,50.64,https://waterdata.usgs.gov/nc/nwis/uv?site_no=02095000
67,2095181,"N BUFFALO CR AT WESTOVER TERRACE AT GREENSBORO, NC",36.0792,-79.8128,3030002,EST,5.76,cfs,2019-04-11 12:30:00,0.99,ft,2019-04-11 12:30:00,0,80.04,147.69,48.65,https://waterdata.usgs.gov/nc/nwis/uv?site_no=02095181
68,2095271,"NORTH BUFFALO CREEK AT CHURCH ST AT GREENSBORO, NC",36.0978,-79.7825,3030002,EST,8.91,cfs,2019-04-11 12:45:00,2.32,ft,2019-04-11 12:45:00,0,60.91,124.62,39.71,https://waterdata.usgs.gov/nc/nwis/uv?site_no=02095271
69,2095500,"NORTH BUFFALO CREEK NEAR GREENSBORO, NC",36.1206,-79.7081,3030002,EST,22.9,cfs,2019-04-11 12:30:00,2.04,ft,2019-04-11 12:30:00,3,9.62,65.43,39.29,https://waterdata.usgs.gov/nc/nwis/uv?site_no=02095500
70,2096500,"HAW RIVER AT HAW RIVER, NC",36.0872,-79.3661,3030002,EST,968,cfs,2019-04-11 12:45:00,4.91,ft,2019-04-11 12:45:00,6,80.61,214.16,112.82,https://waterdata.usgs.gov/nc/nwis/uv?site_no=02096500
71,2096846,"CANE CREEK NEAR ORANGE GROVE, NC",35.9872,-79.2061,3030002,EST,Rat,cfs,2019-04-11 12:45:00,1.46,ft,2019-04-11 12:45:00,0,10.45,28.6,15.07,https://waterdata.usgs.gov/nc/nwis/uv?site_no=02096846
72,2096960,"HAW RIVER NEAR BYNUM, NC",35.7653,-79.1358,3030002,EST,2730,cfs,2019-04-11 12:45:00,6.15,ft,2019-04-11 12:45:00,6,86.55,310.93,127.79,https://waterdata.usgs.gov/nc/nwis/uv?site_no=02096960
73,2097280,"THIRD FORK CR AT WOODCROFT PARKWAY NR BLANDS, NC",35.9226,-78.9524,3030002,EST,Rat,cfs,2019-04-11 12:00:00,1.44,ft,2019-04-11 12:00:00,0,90.0,645.83,442.86,https://waterdata.usgs.gov/nc/nwis/uv?site_no=02097280
74,2097314,"NEW HOPE CREEK NEAR BLANDS, NC",35.885,-78.9653,3030002,EST,476,cfs,2019-04-10 12:45:00,8.22,ft,2019-04-10 12:45:00,0,90.73,793.33,183.37,https://waterdata.usgs.gov/nc/nwis/uv?site_no=02097314
75,2097464,"MORGAN CREEK NEAR WHITE CROSS, NC",35.9236,-79.115,3030002,EST,13.5,cfs,2019-04-11 12:45:00,2.89,ft,2019-04-11 12:45:00,0,86.53,221.31,150.67,https://waterdata.usgs.gov/nc/nwis/uv?site_no=02097464
76,2097517,"MORGAN CREEK NEAR CHAPEL HILL, NC",35.8933,-79.0197,3030002,EST,84,cfs,2019-04-11 12:45:00,5.05,ft,2019-04-11 12:45:00,6,85.75,303.25,139.81,https://waterdata.usgs.gov/nc/nwis/uv?site_no=02097517
77,2098197," B. EVERETT JORDAN LAKE AT DAM NR MONCURE, NC",35.6547,-79.0683,3030002,EST,0,,0000-00-00 00:00:00,220.03,ft,2019-04-11 12:00:00,0,0.0,,,https://waterdata.usgs.gov/nc/nwis/uv?site_no=02098197
78,2098206,"HAW RIVER NEAR MONCURE, NC",35.6322,-79.06,3030002,EST,361,cfs,2019-04-11 11:45:00,3.69,ft,2019-04-11 11:45:00,0,20.0,16.6,12.52,https://waterdata.usgs.gov/nc/nwis/uv?site_no=02098206
79,2099000,"EAST FORK DEEP RIVER NEAR HIGH POINT, NC",36.0372,-79.9456,3030003,EST,16,cfs,2019-04-11 12:30:00,2.39,ft,2019-04-11 12:30:00,6,78.57,160.0,86.25,https://waterdata.usgs.gov/nc/nwis/uv?site_no=02099000
80,2100500,"DEEP RIVER AT RAMSEUR, NC",35.7264,-79.6556,3030003,EST,944,cfs,2019-04-11 12:45:00,2.98,ft,2019-04-11 12:45:00,6,88.1,370.2,173.67,https://waterdata.usgs.gov/nc/nwis/uv?site_no=02100500
81,2101726,"ROCKY R AT US 64 NEAR SILER CITY, NC",35.7351,-79.4231,3030003,EST,97,cfs,2019-04-11 12:30:00,3.18,ft,2019-04-11 12:30:00,0,80.37,492.39,163.08,https://waterdata.usgs.gov/nc/nwis/uv?site_no=02101726
82,2101800,"TICK CREEK NEAR MOUNT VERNON SPRINGS, NC",35.6597,-79.4017,3030003,EST,20.7,cfs,2019-04-11 12:45:00,2.57,ft,2019-04-11 12:45:00,7,90.04,339.34,132.95,https://waterdata.usgs.gov/nc/nwis/uv?site_no=02101800
83,2102000,"DEEP RIVER AT MONCURE, NC",35.6269,-79.1161,3030003,EST,4660,cfs,2019-04-11 12:45:00,4.45,ft,2019-04-11 12:45:00,6,85.89,423.64,203.77,https://waterdata.usgs.gov/nc/nwis/uv?site_no=02102000
84,2102192,"BUCKHORN CREEK NR CORINTH, NC",35.5597,-78.9736,3030004,EST,158,cfs,2019-04-11 12:30:00,3.22,ft,2019-04-11 12:30:00,6,78.92,348.79,147.58,https://waterdata.usgs.gov/nc/nwis/uv?site_no=02102192
85,2102500,"CAPE FEAR RIVER AT LILLINGTON, NC",35.4061,-78.8133,3030004,EST,7440,cfs,2019-04-11 12:15:00,6.18,ft,2019-04-11 12:15:00,6,81.94,319.31,156.24,https://waterdata.usgs.gov/nc/nwis/uv?site_no=02102500
86,2102908,"FLAT CREEK NEAR INVERNESS, NC",35.1828,-79.1775,3030004,EST,15.1,cfs,2019-04-11 12:45:00,1.07,ft,2019-04-11 12:45:00,6,81.38,159.62,123.97,https://waterdata.usgs.gov/nc/nwis/uv?site_no=02102908
87,2103000,"LITTLE RIVER AT MANCHESTER, NC",35.1933,-78.9856,3030004,EST,1520,cfs,2019-04-11 12:30:00,13.88,ft,2019-04-11 12:30:00,0,92.84,424.58,308.17,https://waterdata.usgs.gov/nc/nwis/uv?site_no=02103000
88,2104000,"CAPE FEAR RIVER AT FAYETTEVILLE, NC",35.0472,-78.8581,3030004,EST,0,,0000-00-00 00:00:00,24.37,ft,2019-04-11 12:00:00,0,0.0,,,https://waterdata.usgs.gov/nc/nwis/uv?site_no=02104000
89,2104220,"ROCKFISH CREEK AT RAEFORD, NC",34.9997,-79.2147,3030004,EST,270,cfs,2019-04-11 12:15:00,6.42,ft,2019-04-11 12:15:00,0,86.33,259.62,192.08,https://waterdata.usgs.gov/nc/nwis/uv?site_no=02104220
90,2105500,"CAPE FEAR R AT WILM O HUSKE LOCK NR TARHEEL, NC",34.8356,-78.8236,3030005,EST,16900,cfs,2019-04-11 12:00:00,10.48,ft,2019-04-11 12:00:00,6,88.63,469.44,260.99,https://waterdata.usgs.gov/nc/nwis/uv?site_no=02105500
91,2105769,"CAPE FEAR R AT LOCK #1 NR KELLY, NC",34.4044,-78.2936,3030005,EST,16000,cfs,2019-04-11 12:45:00,20.02,ft,2019-04-11 12:45:00,6,89.68,361.17,230.45,https://waterdata.usgs.gov/nc/nwis/uv?site_no=02105769
92,2106500,"BLACK RIVER NEAR TOMAHAWK, NC",34.755,-78.2886,3030006,EST,1350,cfs,2019-04-11 12:00:00,9.54,ft,2019-04-11 12:00:00,5,73.35,183.92,126.28,https://waterdata.usgs.gov/nc/nwis/uv?site_no=02106500
93,2108000,"NORTHEAST CAPE FEAR RIVER NEAR CHINQUAPIN, NC",34.8289,-77.8322,3030007,EST,1060,cfs,2019-04-11 12:30:00,7.95,ft,2019-04-11 12:30:00,6,76.21,198.5,120.18,https://waterdata.usgs.gov/nc/nwis/uv?site_no=02108000
94,2108566,"NORTHEAST CAPE FEAR R NR BURGAW, NC",34.5983,-77.8753,3030007,EST,998,cfs,2005-12-12 23:45:00,5.92,ft,2019-04-11 12:30:00,0,55.42,121.19,121.19,https://waterdata.usgs.gov/nc/nwis/uv?site_no=02108566
95,2109500,"WACCAMAW RIVER AT FREELAND, NC",34.095,-78.5483,3040206,EST,1240,cfs,2019-04-11 12:30:00,11.74,ft,2019-04-11 12:30:00,5,69.56,154.52,121.83,https://waterdata.usgs.gov/nc/nwis/uv?site_no=02109500
96,2111000,"YADKIN RIVER AT PATTERSON, NC",35.9908,-81.5583,3040101,EST,58.8,cfs,2019-04-11 12:45:00,1.41,ft,2019-04-11 12:45:00,5,62.55,121.24,94.96,https://waterdata.usgs.gov/nc/nwis/uv?site_no=02111000
97,2111180,"ELK CREEK AT ELKVILLE, NC",36.0714,-81.4031,3040101,EST,106,cfs,2019-04-11 12:45:00,1.24,ft,2019-04-11 12:45:00,5,62.22,122.47,90.11,https://waterdata.usgs.gov/nc/nwis/uv?site_no=02111180
98,2111391,"W. KERR SCOTT RESERVOIR AT DAM NR WILKESBORO, NC",36.1336,-81.2267,3040101,EST,0,,0000-00-00 00:00:00,30.23,ft,2019-04-11 12:45:00,0,0.0,,,https://waterdata.usgs.gov/nc/nwis/uv?site_no=02111391
99,2111500,"REDDIES RIVER AT NORTH WILKESBORO, NC",36.175,-81.1689,3040101,EST,206,cfs,2019-04-11 12:00:00,1.64,ft,2019-04-11 12:00:00,6,77.6,139.19,118.69,https://waterdata.usgs.gov/nc/nwis/uv?site_no=02111500
100,2112000,"YADKIN RIVER AT WILKESBORO, NC",36.1525,-81.1456,3040101,EST,1390,cfs,2019-04-11 12:45:00,3.56,ft,2019-04-11 12:45:00,6,84.08,181.94,138.05,https://waterdata.usgs.gov/nc/nwis/uv?site_no=02112000
101,2112250,"YADKIN RIVER AT ELKIN, NC",36.2404,-80.8492,3040101,EST,2130,cfs,2019-04-11 12:00:00,3.91,ft,2019-04-11 12:00:00,6,83.0,180.51,131.86,https://waterdata.usgs.gov/nc/nwis/uv?site_no=02112250
102,2113850,"ARARAT RIVER AT ARARAT, NC",36.4044,-80.5617,3040101,EST,465,cfs,2019-04-11 12:30:00,1.56,ft,2019-04-11 12:30:00,6,81.43,151.22,124.12,https://waterdata.usgs.gov/nc/nwis/uv?site_no=02113850
103,2114450,"LITTLE YADKIN RIVER AT DALTON, NC",36.2992,-80.4147,3040101,EST,43.6,cfs,2019-04-11 12:15:00,0.81,ft,2019-04-11 12:15:00,5,64.03,127.49,85.56,https://waterdata.usgs.gov/nc/nwis/uv?site_no=02114450
104,2115360,"YADKIN RIVER AT ENON, NC",36.1317,-80.4439,3040101,EST,3180,cfs,2019-04-11 12:00:00,5.24,ft,2019-04-11 12:00:00,6,78.38,143.89,100.77,https://waterdata.usgs.gov/nc/nwis/uv?site_no=02115360
105,2116500,"YADKIN RIVER AT YADKIN COLLEGE, NC",35.8567,-80.3869,3040101,EST,4440,cfs,2019-04-11 12:00:00,3.62,ft,2019-04-11 12:00:00,6,81.61,158.57,97.99,https://waterdata.usgs.gov/nc/nwis/uv?site_no=02116500
106,2118000,"SOUTH YADKIN RIVER NEAR MOCKSVILLE, NC",35.845,-80.6589,3040102,EST,668,cfs,2019-04-11 12:00:00,3.72,ft,2019-04-11 12:00:00,6,83.16,220.46,129.09,https://waterdata.usgs.gov/nc/nwis/uv?site_no=02118000
107,2118500,"HUNTING CREEK NEAR HARMONY, NC",36.0006,-80.7456,3040102,EST,331,cfs,2019-04-11 12:30:00,1.88,ft,2019-04-11 12:30:00,6,80.42,178.92,124.89,https://waterdata.usgs.gov/nc/nwis/uv?site_no=02118500
108,2120780,"SECOND CREEK NEAR BARBER, NC",35.7176,-80.5961,3040102,EST,193,cfs,2019-04-11 12:00:00,3.62,ft,2019-04-11 12:00:00,6,84.8,257.33,82.33,https://waterdata.usgs.gov/nc/nwis/uv?site_no=02120780
109,2121500,"ABBOTTS CREEK AT LEXINGTON, NC",35.8069,-80.2347,3040103,EST,322,cfs,2019-04-11 12:30:00,5.27,ft,2019-04-11 12:30:00,0,81.73,270.59,78.46,https://waterdata.usgs.gov/nc/nwis/uv?site_no=02121500
110,2123500,"UWHARRIE RIVER NEAR ELDORADO, NC",35.4299,-80.0178,3040103,EST,0,,0000-00-00 00:00:00,4.18,ft,2019-04-11 12:00:00,0,0.0,,,https://waterdata.usgs.gov/nc/nwis/uv?site_no=02123500
111,2124080,"CLARKE CREEK NEAR HARRISBURG, NC",35.4142,-80.7519,3040105,EST,28,cfs,2019-04-11 12:20:00,3.56,ft,2019-04-11 12:20:00,0,81.18,303.69,106.54,https://waterdata.usgs.gov/nc/nwis/uv?site_no=02124080
112,2124269,"BACK CR AT SR1173 NEAR HARRISBURG, NC",35.3092,-80.6736,3040105,EST,6.75,cfs,2019-04-11 12:15:00,2.59,ft,2019-04-11 12:15:00,0,88.89,278.93,259.62,https://waterdata.usgs.gov/nc/nwis/uv?site_no=02124269
113,2126000,"ROCKY RIVER NEAR NORWOOD, NC",35.1489,-80.1758,3040105,EST,2560,cfs,2019-04-11 12:00:00,3.59,ft,2019-04-11 12:00:00,6,85.26,358.04,127.03,https://waterdata.usgs.gov/nc/nwis/uv?site_no=02126000
114,2126375,"PEE DEE R AT PEE DEE REFUGE NR ANSONVILLE, NC",35.1032,-80.0459,3040104,EST,0,,0000-00-00 00:00:00,12.32,ft,2019-04-11 12:15:00,0,0.0,,,https://waterdata.usgs.gov/nc/nwis/uv?site_no=02126375
115,2128000,"LITTLE RIVER NEAR STAR, NC",35.3872,-79.8314,3040104,EST,269,cfs,2019-04-11 12:45:00,2.75,ft,2019-04-11 12:45:00,7,90.1,332.1,143.85,https://waterdata.usgs.gov/nc/nwis/uv?site_no=02128000
116,2129000,"PEE DEE R NR ROCKINGHAM, NC",34.9458,-79.8697,3040201,EST,21100,cfs,2019-04-11 12:00:00,6.44,ft,2019-04-11 12:00:00,6,86.69,257.47,170.07,https://waterdata.usgs.gov/nc/nwis/uv?site_no=02129000
117,2129375,"PEE DEE RIVER ABOVE JONES CREEK NEAR CORDOVA, NC",34.8663,-79.8789,3040201,EST,0,,0000-00-00 00:00:00,8.04,ft,2019-04-11 12:15:00,0,0.0,,,https://waterdata.usgs.gov/nc/nwis/uv?site_no=02129375
118,2132320,"BIG SHOE HEEL CREEK NR LAURINBURG, NC",34.7506,-79.3867,3040204,EST,243,cfs,2019-04-11 12:45:00,4.28,ft,2019-04-11 12:45:00,7,91.85,309.55,229.77,https://waterdata.usgs.gov/nc/nwis/uv?site_no=02132320
119,2133500,"DROWNING CREEK NEAR HOFFMAN, NC",35.0611,-79.4939,3040203,EST,613,cfs,2019-04-11 12:00:00,5.64,ft,2019-04-11 12:00:00,7,90.91,239.45,194.26,https://waterdata.usgs.gov/nc/nwis/uv?site_no=02133500
120,2133624,"LUMBER RIVER NEAR MAXTON, NC",34.7728,-79.3319,3040203,EST,1060,cfs,2019-04-11 12:00:00,11.2,ft,2019-04-11 12:00:00,6,86.99,257.91,191.35,https://waterdata.usgs.gov/nc/nwis/uv?site_no=02133624
121,2134170,"LUMBER RIVER AT LUMBERTON, NC",34.6203,-79.0111,3040203,EST,1830,cfs,2019-04-11 12:45:00,13.81,ft,2019-04-11 12:45:00,0,87.53,269.91,211.69,https://waterdata.usgs.gov/nc/nwis/uv?site_no=02134170
122,2134480,"BIG SWAMP NR TAR HEEL, NC",34.7103,-78.8364,3040203,EST,392,cfs,2019-04-11 12:00:00,10.86,ft,2019-04-11 12:00:00,6,81.82,198.98,139.55,https://waterdata.usgs.gov/nc/nwis/uv?site_no=02134480
123,2134500,"LUMBER RIVER AT BOARDMAN, NC",34.4425,-78.9603,3040203,EST,2830,cfs,2019-04-11 12:00:00,7.26,ft,2019-04-11 12:00:00,6,77.8,183.77,144.09,https://waterdata.usgs.gov/nc/nwis/uv?site_no=02134500
124,2137727,"CATAWBA R NR PLEASANT GARDENS, NC",35.6858,-82.0603,3050101,EST,340,cfs,2019-04-11 12:45:00,2.36,ft,2019-04-11 12:45:00,6,80.25,155.96,112.67,https://waterdata.usgs.gov/nc/nwis/uv?site_no=02137727
125,2138500,"LINVILLE RIVER NEAR NEBO, NC",35.7956,-81.8911,3050101,EST,114,cfs,2019-04-11 12:45:00,1.41,ft,2019-04-11 12:45:00,5,30.0,82.01,61.97,https://waterdata.usgs.gov/nc/nwis/uv?site_no=02138500
126,2138520,"CATAWBA R AT SR1223 BL LK JAMES NR BRIDGEWATER, NC",35.7404,-81.8347,3050101,EST,1710,cfs,2019-04-11 12:15:00,4.31,ft,2019-04-11 12:15:00,0,86.86,294.83,228.42,https://waterdata.usgs.gov/nc/nwis/uv?site_no=02138520
127,2138816,"OLD CATAWBA R BL CATAWBA DAM NEAR BRIDGEWATER, NC",35.7345,-81.8874,3050101,EST,86.7,cfs,2019-04-11 12:45:00,1.84,ft,2019-04-11 12:45:00,0,0.0,,,https://waterdata.usgs.gov/nc/nwis/uv?site_no=02138816
128,2140991,"JOHNS RIVER AT ARNEYS STORE, NC",35.8336,-81.7119,3050101,EST,433,cfs,2019-04-11 12:15:00,2.66,ft,2019-04-11 12:15:00,5,69.99,132.82,102.26,https://waterdata.usgs.gov/nc/nwis/uv?site_no=02140991
129,2141500,"CATAWBA RIVER AT RHODHISS, NC",35.7726,-81.4307,3050101,EST,0,,0000-00-00 00:00:00,11.77,ft,2019-04-11 12:30:00,0,0.0,,,https://waterdata.usgs.gov/nc/nwis/uv?site_no=02141500
130,2142000,"LOWER LITTLE RIVER NR ALL HEALING SPRINGS, NC",35.9456,-81.2369,3050101,EST,51.2,cfs,2019-04-11 12:30:00,1.16,ft,2019-04-11 12:30:00,5,71.67,129.29,105.87,https://waterdata.usgs.gov/nc/nwis/uv?site_no=02142000
131,2142654,"MCDOWELL CREEK NR HUNTERSVILLE, NC",35.4069,-80.8906,3050101,EST,9.52,cfs,2019-04-11 12:25:00,1.87,ft,2019-04-11 12:25:00,0,74.75,197.51,43.35,https://waterdata.usgs.gov/nc/nwis/uv?site_no=02142654
132,2142900,"LONG CREEK NEAR PAW CREEK, NC",35.3286,-80.9097,3050101,EST,24.3,cfs,2019-04-11 12:45:00,1.62,ft,2019-04-11 12:45:00,6,89.16,257.14,134.63,https://waterdata.usgs.gov/nc/nwis/uv?site_no=02142900
133,2142914,"GUM BRANCH NEAR THRIFT, NC",35.2994,-80.9464,3050101,EST,8.78,cfs,2019-04-11 12:55:00,1.78,ft,2019-04-11 12:55:00,0,82.25,400.91,168.2,https://waterdata.usgs.gov/nc/nwis/uv?site_no=02142914
134,2143000,"HENRY FORK NEAR HENRY RIVER, NC",35.6844,-81.4033,3050102,EST,223,cfs,2019-04-11 12:30:00,2.01,ft,2019-04-11 12:30:00,6,82.77,171.54,125.31,https://waterdata.usgs.gov/nc/nwis/uv?site_no=02143000
135,2143040,"JACOB FORK AT RAMSEY, NC",35.5906,-81.5669,3050102,EST,82.7,cfs,2019-04-11 12:30:00,2.36,ft,2019-04-11 12:30:00,6,83.02,196.9,133.15,https://waterdata.usgs.gov/nc/nwis/uv?site_no=02143040
136,2143500,"INDIAN CREEK NEAR LABORATORY, NC",35.4206,-81.2653,3050102,EST,64.7,cfs,2019-04-11 12:00:00,1.32,ft,2019-04-11 12:00:00,5,34.49,74.8,46.24,https://waterdata.usgs.gov/nc/nwis/uv?site_no=02143500
137,2144000,"LONG CREEK NEAR BESSEMER CITY, NC",35.3064,-81.2347,3050102,EST,53.2,cfs,2019-04-11 12:30:00,2.1,ft,2019-04-11 12:30:00,6,81.19,171.61,92.99,https://waterdata.usgs.gov/nc/nwis/uv?site_no=02144000
138,2145000,"SOUTH FORK CATAWBA RIVER AT LOWELL, NC",35.2853,-81.1011,3050102,EST,1440,cfs,2019-04-11 12:15:00,4.41,ft,2019-04-11 12:15:00,6,82.7,194.46,120.32,https://waterdata.usgs.gov/nc/nwis/uv?site_no=02145000
139,2145268,"DUHARTS CREEK AT SR 2439 NEAR CRAMERTON, NC",35.2475,-81.0977,3050102,EST,6.77,cfs,2019-04-11 12:45:00,1.15,ft,2019-04-11 12:45:00,0,0.0,,,https://waterdata.usgs.gov/nc/nwis/uv?site_no=02145268
140,2146211,"IRWIN CR AT STATESVILLE AVE AT CHARLOTTE, NC",35.2619,-80.8369,3050103,EST,7.03,cfs,2019-04-11 12:55:00,2.23,ft,2019-04-11 12:55:00,6,78.81,241.58,138.39,https://waterdata.usgs.gov/nc/nwis/uv?site_no=02146211
141,2146285,"STEWART CREEK AT WEST MOREHEAD ST AT CHARLOTTE, NC",35.2283,-80.8692,3050103,EST,16.5,cfs,2019-04-11 12:55:00,2,ft,2019-04-11 12:55:00,0,81.06,162.56,112.55,https://waterdata.usgs.gov/nc/nwis/uv?site_no=02146285
142,2146300,"IRWIN CREEK NEAR CHARLOTTE, NC",35.1978,-80.9044,3050103,EST,39.4,cfs,2019-04-11 12:55:00,0.99,ft,2019-04-11 12:55:00,6,78.41,179.09,123.51,https://waterdata.usgs.gov/nc/nwis/uv?site_no=02146300
143,2146315,"TAGGART CREEK AT WEST BOULEVARD NR CHARLOTTE, NC",35.2067,-80.9219,3050103,EST,6.34,cfs,2019-04-11 12:55:00,1.64,ft,2019-04-11 12:55:00,0,80.47,358.19,145.08,https://waterdata.usgs.gov/nc/nwis/uv?site_no=02146315
144,2146330,"SUGAR CREEK AT ARROWOOD ROAD NEAR CHARLOTTE, NC",35.1397,-80.9111,3050103,EST,0,,0000-00-00 00:00:00,1.2,ft,2019-04-11 12:55:00,0,0.0,,,https://waterdata.usgs.gov/nc/nwis/uv?site_no=02146330
145,2146348,"COFFEY CREEK NR CHARLOTTE, NC",35.1458,-80.9269,3050103,EST,9.93,cfs,2019-04-11 12:55:00,2.43,ft,2019-04-11 12:55:00,0,80.71,285.34,89.46,https://waterdata.usgs.gov/nc/nwis/uv?site_no=02146348
146,2146381,"SUGAR CREEK AT NC 51 NEAR PINEVILLE, NC",35.0908,-80.8994,3050103,EST,94.3,cfs,2019-04-11 12:55:00,1.48,ft,2019-04-11 12:55:00,0,80.94,230.0,87.71,https://waterdata.usgs.gov/nc/nwis/uv?site_no=02146381
147,2146409,"LTL SUGAR CR AT MEDICAL CENTER DR AT CHARLOTTE, NC",35.2036,-80.8369,3050103,EST,15.6,cfs,2019-04-11 12:55:00,2.12,ft,2019-04-11 12:55:00,0,81.94,266.21,143.65,https://waterdata.usgs.gov/nc/nwis/uv?site_no=02146409
148,2146420,"LITTLE SUGAR CR AT HILLSIDE AVE, CHARLOTTE, NC",35.1792,-80.8464,3050103,EST,0,,0000-00-00 00:00:00,1.2,ft,2019-04-11 12:55:00,0,0.0,,,https://waterdata.usgs.gov/nc/nwis/uv?site_no=02146420
149,2146449,"BRIAR CREEK AT PROVIDENCE ROAD AT CHARLOTTE, NC",35.1825,-80.82,3050103,EST,0,,0000-00-00 00:00:00,1.6,ft,2019-04-11 12:55:00,0,0.0,,,https://waterdata.usgs.gov/nc/nwis/uv?site_no=02146449
150,2146470,"LITTLE HOPE CR AT SENECA PLACE AT CHARLOTTE, NC",35.1644,-80.8531,3050103,EST,2.38,cfs,2019-04-11 12:55:00,3.25,ft,2019-04-11 12:55:00,6,81.98,218.35,136.78,https://waterdata.usgs.gov/nc/nwis/uv?site_no=02146470
151,2146507,"LITTLE SUGAR C AT ARCHDALE DR AT CHARLOTTE, NC",35.1481,-80.8578,3050103,EST,65,cfs,2019-04-11 12:55:00,2.68,ft,2019-04-11 12:55:00,6,78.59,157.96,111.13,https://waterdata.usgs.gov/nc/nwis/uv?site_no=02146507
152,2146530,"LITTLE SUGAR CREEK AT PINEVILLE, NC",35.0853,-80.8822,3050103,EST,76.8,cfs,2019-04-11 12:55:00,2.14,ft,2019-04-11 12:55:00,0,80.94,186.63,99.39,https://waterdata.usgs.gov/nc/nwis/uv?site_no=02146530
153,2146562,"CAMPBELL CREEK NR CHARLOTTE, NC",35.1867,-80.7367,3050103,EST,5.05,cfs,2019-04-11 12:55:00,1.25,ft,2019-04-11 12:55:00,0,81.18,298.82,135.03,https://waterdata.usgs.gov/nc/nwis/uv?site_no=02146562
154,2146600,"MCALPINE CR AT SARDIS ROAD NEAR CHARLOTTE, NC",35.1378,-80.7675,3050103,EST,40.5,cfs,2019-04-11 12:55:00,1.49,ft,2019-04-11 12:55:00,6,83.53,238.24,70.42,https://waterdata.usgs.gov/nc/nwis/uv?site_no=02146600
155,2146614,"MCALPINE CR AT COLONY RD NEAR OLDE PROVIDENCE, NC",35.1183,-80.8067,3050103,EST,0,,0000-00-00 00:00:00,2.6,ft,2019-04-11 12:55:00,0,0.0,,,https://waterdata.usgs.gov/nc/nwis/uv?site_no=02146614
156,2146670,"FOUR MILE CREEK NEAR PINEVILLE, NC",35.0769,-80.8225,3050103,EST,16.5,cfs,2019-04-11 12:55:00,4.31,ft,2019-04-11 12:55:00,0,61.95,255.42,42.91,https://waterdata.usgs.gov/nc/nwis/uv?site_no=02146670
157,2146700,"MCMULLEN CR AT SHARON VIEW RD NEAR CHARLOTTE, NC",35.1408,-80.82,3050103,EST,4.33,cfs,2019-04-11 12:55:00,0.97,ft,2019-04-11 12:55:00,6,79.24,205.21,46.36,https://waterdata.usgs.gov/nc/nwis/uv?site_no=02146700
158,2146750,"MCALPINE CR BELOW MCMULLEN CR NR PINEVILLE, NC",35.0665,-80.8699,3050103,EST,78.7,cfs,2019-04-11 12:55:00,2.18,ft,2019-04-11 12:55:00,6,80.62,248.26,72.35,https://waterdata.usgs.gov/nc/nwis/uv?site_no=02146750
159,2149000,"COVE CREEK NEAR LAKE LURE, NC",35.4233,-82.1117,3050105,EST,270,cfs,2019-04-11 12:30:00,3.23,ft,2019-04-11 12:30:00,6,86.51,200.0,159.07,https://waterdata.usgs.gov/nc/nwis/uv?site_no=02149000
160,2150495,"SECOND BROAD RIVER NR LOGAN, NC",35.4044,-81.8725,3050105,EST,231,cfs,2019-04-11 12:45:00,3.44,ft,2019-04-11 12:45:00,0,82.55,256.67,132.47,https://waterdata.usgs.gov/nc/nwis/uv?site_no=02150495
161,2151500,"BROAD RIVER NEAR BOILING SPRINGS, NC",35.2108,-81.6975,3050105,EST,2840,cfs,2019-04-11 12:15:00,3.66,ft,2019-04-11 12:15:00,6,84.24,179.75,144.09,https://waterdata.usgs.gov/nc/nwis/uv?site_no=02151500
162,2152100,"FIRST BROAD RIVER NEAR CASAR, NC",35.4931,-81.6822,3050105,EST,158,cfs,2019-04-11 12:30:00,1.44,ft,2019-04-11 12:30:00,6,81.16,190.36,127.65,https://waterdata.usgs.gov/nc/nwis/uv?site_no=02152100
163,2152474,"FIRST BROAD RIVER AT LAWNDALE, NC",35.4153,-81.5617,3050105,EST,412,cfs,2019-04-11 12:15:00,2.08,ft,2019-04-11 12:15:00,0,80.07,217.99,105.94,https://waterdata.usgs.gov/nc/nwis/uv?site_no=02152474
164,3161000,"SOUTH FORK NEW RIVER NEAR JEFFERSON, NC",36.3933,-81.4069,5050001,EST,498,cfs,2019-04-11 12:30:00,2.58,ft,2019-04-11 12:30:00,5,61.2,114.75,93.06,https://waterdata.usgs.gov/nc/nwis/uv?site_no=03161000
165,3439000,"FRENCH BROAD RIVER AT ROSMAN, NC",35.1433,-82.8247,6010105,EST,296,cfs,2019-04-11 12:15:00,2.66,ft,2019-04-11 12:15:00,5,61.61,113.85,97.45,https://waterdata.usgs.gov/nc/nwis/uv?site_no=03439000
166,3441000,"DAVIDSON RIVER NEAR BREVARD, NC",35.2731,-82.7058,6010105,EST,165,cfs,2019-04-11 12:30:00,1.27,ft,2019-04-11 12:30:00,5,66.67,120.44,99.6,https://waterdata.usgs.gov/nc/nwis/uv?site_no=03441000
167,3443000,"FRENCH BROAD RIVER AT BLANTYRE, NC",35.2992,-82.6239,6010105,EST,1480,cfs,2019-04-11 12:30:00,9.58,ft,2019-04-11 12:30:00,5,74.37,143.69,117.15,https://waterdata.usgs.gov/nc/nwis/uv?site_no=03443000
168,3446000,"MILLS RIVER NEAR MILLS RIVER, NC",35.3981,-82.595,6010105,EST,196,cfs,2019-04-11 12:30:00,2.31,ft,2019-04-11 12:30:00,5,52.15,103.43,86.88,https://waterdata.usgs.gov/nc/nwis/uv?site_no=03446000
169,3447687,"FRENCH BROAD RIVER NEAR FLETCHER, NC",35.4292,-82.5525,6010105,EST,2490,cfs,2019-04-11 12:45:00,6.63,ft,2019-04-11 12:45:00,0,82.61,155.62,132.68,https://waterdata.usgs.gov/nc/nwis/uv?site_no=03447687
170,3450000,"BEETREE CREEK NEAR SWANNANOA, NC",35.6531,-82.4053,6010105,EST,11.5,cfs,2019-04-11 12:30:00,1.59,ft,2019-04-11 12:30:00,5,27.08,79.58,69.95,https://waterdata.usgs.gov/nc/nwis/uv?site_no=03450000
171,3451000,"SWANNANOA RIVER AT BILTMORE, NC",35.5683,-82.5447,6010105,EST,209,cfs,2019-04-11 12:00:00,2.11,ft,2019-04-11 12:00:00,5,54.58,105.56,89.72,https://waterdata.usgs.gov/nc/nwis/uv?site_no=03451000
172,3451500,"FRENCH BROAD RIVER AT ASHEVILLE, NC",35.6089,-82.5781,6010105,EST,3350,cfs,2019-04-11 12:00:00,2.97,ft,2019-04-11 12:00:00,6,79.75,150.22,126.98,https://waterdata.usgs.gov/nc/nwis/uv?site_no=03451500
173,3453000,"IVY RIVER NEAR MARSHALL, NC",35.7697,-82.6208,6010105,EST,307,cfs,2019-04-11 12:30:00,3.29,ft,2019-04-11 12:30:00,6,79.33,168.68,127.24,https://waterdata.usgs.gov/nc/nwis/uv?site_no=03453000
174,3453500,"FRENCH BROAD RIVER AT MARSHALL, NC",35.7864,-82.6608,6010105,EST,4140,cfs,2019-04-11 12:00:00,3.2,ft,2019-04-11 12:00:00,6,77.8,158.62,126.57,https://waterdata.usgs.gov/nc/nwis/uv?site_no=03453500
175,3454500,"FRENCH BROAD RIVER AT HOT SPRINGS, NC",35.8899,-82.821,6010105,EST,5110,cfs,2019-04-11 12:15:00,4.03,ft,2019-04-11 12:15:00,0,91.15,185.48,162.79,https://waterdata.usgs.gov/nc/nwis/uv?site_no=03454500
176,3455500,"W F PIGEON R ABOVE LAKE LOGAN NR HAZELWOOD, NC",35.3961,-82.9375,6010106,EST,88.1,cfs,2019-04-11 12:30:00,1.39,ft,2019-04-11 12:30:00,5,29.12,79.37,70.08,https://waterdata.usgs.gov/nc/nwis/uv?site_no=03455500
177,3455773,"LAKE LOGAN AT DAM NEAR HAZELWOOD, NC",35.4225,-82.9222,6010106,EST,0,,0000-00-00 00:00:00,53.47,ft,2019-04-11 12:30:00,0,0.0,,,https://waterdata.usgs.gov/nc/nwis/uv?site_no=03455773
178,3456100,"WEST FORK PIGEON RIVER AT BETHEL, NC",35.4639,-82.9,6010106,EST,194,cfs,2019-04-11 12:30:00,1.5,ft,2019-04-11 12:30:00,5,62.1,114.12,98.63,https://waterdata.usgs.gov/nc/nwis/uv?site_no=03456100
179,3456500,"EAST FORK PIGEON RIVER NEAR CANTON, NC",35.4617,-82.8697,6010106,EST,123,cfs,2019-04-11 12:30:00,1.51,ft,2019-04-11 12:30:00,5,28.65,79.61,65.98,https://waterdata.usgs.gov/nc/nwis/uv?site_no=03456500
180,3456991,"PIGEON RIVER NEAR CANTON, NC",35.5219,-82.8481,6010106,EST,345,cfs,2019-04-11 12:00:00,2.18,ft,2019-04-11 12:00:00,5,42.05,90.43,78.5,https://waterdata.usgs.gov/nc/nwis/uv?site_no=03456991
181,3459500,"PIGEON RIVER NEAR HEPCO, NC",35.635,-82.99,6010106,EST,980,cfs,2019-04-11 12:30:00,2.94,ft,2019-04-11 12:30:00,5,64.35,116.32,102.67,https://waterdata.usgs.gov/nc/nwis/uv?site_no=03459500
182,3460000,"CATALOOCHEE CREEK NEAR CATALOOCHEE, NC",35.6672,-83.0728,6010106,EST,164,cfs,2019-04-11 12:30:00,2.82,ft,2019-04-11 12:30:00,5,68.95,122.39,107.2,https://waterdata.usgs.gov/nc/nwis/uv?site_no=03460000
183,3460795,"PIGEON R BL POWER PLANT NR WATERVILLE, NC",35.7836,-83.1119,6010106,EST,1670,cfs,2019-04-11 12:15:00,6.55,ft,2019-04-11 12:15:00,0,77.71,138.02,119.87,https://waterdata.usgs.gov/nc/nwis/uv?site_no=03460795
184,3463300,"SOUTH TOE RIVER NEAR CELO, NC",35.8314,-82.1842,6010108,EST,117,cfs,2019-04-11 12:30:00,1.03,ft,2019-04-11 12:30:00,5,35.43,82.98,69.37,https://waterdata.usgs.gov/nc/nwis/uv?site_no=03463300
185,3479000,"WATAUGA RIVER NEAR SUGAR GROVE, NC",36.2392,-81.8222,6010103,EST,144,cfs,2019-04-11 12:30:00,1.93,ft,2019-04-11 12:30:00,5,33.46,78.69,61.72,https://waterdata.usgs.gov/nc/nwis/uv?site_no=03479000
186,3500000,"LITTLE TENNESSEE RIVER NEAR PRENTISS, NC",35.15,-83.3797,6010202,EST,593,cfs,2019-04-11 12:30:00,2.9,ft,2019-04-11 12:30:00,5,67.17,122.14,114.01,https://waterdata.usgs.gov/nc/nwis/uv?site_no=03500000
187,3500240,"CARTOOGECHAYE CREEK NEAR FRANKLIN, NC",35.1589,-83.3942,6010202,EST,244,cfs,2019-03-27 12:45:00,2.69,ft,2019-03-27 12:45:00,0,81.75,146.55,128.2,https://waterdata.usgs.gov/nc/nwis/uv?site_no=03500240
188,3501975,"LITTLE TENNESSEE RIVER AB NC HWY 28 AT IOTLA, NC",35.2329,-83.3915,6010202,EST,1230,cfs,2019-04-11 12:15:00,3.27,ft,2019-04-11 12:15:00,0,83.33,163.35,153.25,https://waterdata.usgs.gov/nc/nwis/uv?site_no=03501975
189,3503000,"LITTLE TENNESSEE RIVER AT NEEDMORE, NC",35.3364,-83.5269,6010202,EST,1710,cfs,2019-04-11 12:15:00,3.64,ft,2019-04-11 12:15:00,5,72.32,131.54,123.12,https://waterdata.usgs.gov/nc/nwis/uv?site_no=03503000
190,3504000,"NANTAHALA RIVER NEAR RAINBOW SPRINGS, NC",35.1275,-83.6186,6010202,EST,264,cfs,2019-04-11 12:30:00,1.69,ft,2019-04-11 12:30:00,5,54.77,107.76,97.12,https://waterdata.usgs.gov/nc/nwis/uv?site_no=03504000
191,3505550,"NANTAHALA RIVER NEAR HEWITT, NC",35.305,-83.6522,6010202,EST,970,cfs,2019-04-11 12:30:00,3.16,ft,2019-04-11 12:30:00,0,92.86,188.35,205.04,https://waterdata.usgs.gov/nc/nwis/uv?site_no=03505550
192,3508050,"TUCKASEGEE RIVER AT SR 1172 NR CULLOWHEE, NC",35.2878,-83.1439,6010203,EST,699,cfs,2019-04-11 12:15:00,5.88,ft,2019-04-11 12:15:00,0,92.86,241.03,237.25,https://waterdata.usgs.gov/nc/nwis/uv?site_no=03508050
193,3510577,"TUCKASEGEE RIVER AT BARKER'S CREEK, NC",35.3844,-83.2917,6010203,EST,874,cfs,2019-04-11 12:15:00,4.37,ft,2019-04-11 12:15:00,0,66.71,117.95,118.65,https://waterdata.usgs.gov/nc/nwis/uv?site_no=03510577
194,3512000,"OCONALUFTEE RIVER AT BIRDTOWN, NC",35.4614,-83.3536,6010203,EST,796,cfs,2019-04-11 12:00:00,2.29,ft,2019-04-11 12:00:00,6,76.3,125.95,113.47,https://waterdata.usgs.gov/nc/nwis/uv?site_no=03512000
195,3513000,"TUCKASEGEE RIVER AT BRYSON CITY, NC",35.4275,-83.4469,6010203,EST,2240,cfs,2019-04-11 12:15:00,3.34,ft,2019-04-11 12:15:00,5,58.95,114.87,104.69,https://waterdata.usgs.gov/nc/nwis/uv?site_no=03513000
196,3550000,"VALLEY RIVER AT TOMOTLA, NC",35.1389,-83.9806,6020002,EST,532,cfs,2019-04-11 12:30:00,3.24,ft,2019-04-11 12:30:00,6,85.65,172.73,151.61,https://waterdata.usgs.gov/nc/nwis/uv?site_no=03550000
197,204382800,"PASQUOTANK RIVER NEAR SOUTH MILLS, NC",36.4214,-76.3425,3010205,EST,232,cfs,2019-04-11 12:15:00,6.79,ft,2019-04-11 12:15:00,0,90.16,177.78,149.68,https://waterdata.usgs.gov/nc/nwis/uv?site_no=0204382800
198,207730290,"AFTERBAY RESERVOIR AT DAM NR MCGEHEES MILL, NC",36.5225,-78.9975,3010104,EST,0,,0000-00-00 00:00:00,379.79,ft,2019-04-11 12:45:00,0,0.0,,,https://waterdata.usgs.gov/nc/nwis/uv?site_no=0207730290
199,208062765,"ROANOKE RIVER AT HALIFAX, NC",36.3311,-77.5803,3010107,EST,0,,0000-00-00 00:00:00,31.49,ft,2019-04-11 12:15:00,0,0.0,,,https://waterdata.usgs.gov/nc/nwis/uv?site_no=0208062765
200,208111310,"CASHIE RIVER AT SR1257 NEAR WINDSOR, NC",36.0478,-76.9842,3010107,EST,123,cfs,2019-04-11 12:15:00,4.82,ft,2019-04-11 12:15:00,5,71.42,187.07,70.67,https://waterdata.usgs.gov/nc/nwis/uv?site_no=0208111310
201,208114150,"ROANOKE RIVER AT NC 45 NR WESTOVER, NC",35.915,-76.7228,3010107,EST,0,,0000-00-00 00:00:00,1.73,ft,2019-04-11 12:45:00,0,0.0,,,https://waterdata.usgs.gov/nc/nwis/uv?site_no=0208114150
202,208250410,"TAR RIVER BELOW DAM NEAR LANGLEY CROSSROADS, NC",35.8999,-77.8841,3020101,EST,2250,cfs,2019-04-11 12:15:00,7.32,ft,2019-04-11 12:15:00,0,83.12,554.19,280.75,https://waterdata.usgs.gov/nc/nwis/uv?site_no=0208250410
203,208458892,"LAKE MATTAMUSKEET W OF NC HWY 94 NR FAIRFIELD, NC",35.5058,-76.2539,3020105,EST,0,,0000-00-00 00:00:00,2.41,ft,2019-04-11 12:15:00,0,0.0,,,https://waterdata.usgs.gov/nc/nwis/uv?site_no=0208458892
204,208458893,"LAKE MATTAMUSKEET E OF NC HWY 94 NR FAIRFIELD, NC",35.5064,-76.1839,3020105,EST,0,,0000-00-00 00:00:00,2.42,ft,2019-04-11 12:15:00,0,0.0,,,https://waterdata.usgs.gov/nc/nwis/uv?site_no=0208458893
205,208521324,"LITTLE RIVER AT SR1461 NEAR ORANGE FACTORY, NC",36.1417,-78.9192,3020201,EST,131,cfs,2019-04-11 12:15:00,2.28,ft,2019-04-11 12:15:00,6,87.2,321.08,135.33,https://waterdata.usgs.gov/nc/nwis/uv?site_no=0208521324
206,208524090,"MOUNTAIN CREEK AT SR1617 NR BAHAMA, NC",36.1497,-78.8967,3020201,EST,10.1,cfs,2019-04-11 12:15:00,4.4,ft,2019-04-11 12:15:00,0,80.27,251.87,143.06,https://waterdata.usgs.gov/nc/nwis/uv?site_no=0208524090
207,208524975,"LITTLE R BL LITTLE R TRIB AT FAIRNTOSH, NC",36.1133,-78.8597,3020201,EST,173,cfs,2019-04-11 12:45:00,2.79,ft,2019-04-11 12:45:00,0,90.02,585.45,153.26,https://waterdata.usgs.gov/nc/nwis/uv?site_no=0208524975
208,208675010,"ELLERBE CREEK AT CLUB BOULEVARD AT DURHAM, NC",36.0194,-78.8948,3020201,EST,3.1,cfs,2019-04-11 12:30:00,0.52,ft,2019-04-11 12:30:00,0,80.2,152.71,117.42,https://waterdata.usgs.gov/nc/nwis/uv?site_no=0208675010
209,208700550,"LITTLE LICK CREEK AT NC HWY 98 AT OAK GROVE, NC",35.9823,-78.8245,3020201,EST,0,,0000-00-00 00:00:00,1.76,ft,2019-04-11 12:00:00,0,0.0,,,https://waterdata.usgs.gov/nc/nwis/uv?site_no=0208700550
210,208706575,"BEAVERDAM CREEK AT DAM NEAR CREEDMOOR, NC",36.0236,-78.6892,3020201,EST,0,,0000-00-00 00:00:00,252.77,ft,2019-04-11 12:45:00,0,0.0,,,https://waterdata.usgs.gov/nc/nwis/uv?site_no=0208706575
211,208726005,"CRABTREE CR AT EBENEZER CHURCH RD NR RALEIGH, NC",35.8453,-78.7244,3020201,EST,414,cfs,2019-04-11 12:45:00,6.54,ft,2019-04-11 12:45:00,0,91.33,686.57,341.47,https://waterdata.usgs.gov/nc/nwis/uv?site_no=0208726005
212,208731190,"CRABTREE CREEK AT ANDERSON DRIVE AT RALEIGH, NC",35.8211,-78.6342,3020201,EST,0,,0000-00-00 00:00:00,5.28,ft,2019-04-11 12:00:00,0,0.0,,,https://waterdata.usgs.gov/nc/nwis/uv?site_no=0208731190
213,208732534,"PIGEON HOUSE CR AT CAMERON VILLAGE AT RALEIGH, NC",35.7875,-78.6547,3020201,EST,0.43,cfs,2019-04-11 12:35:00,1.54,ft,2019-04-11 12:35:00,0,91.0,430.0,286.67,https://waterdata.usgs.gov/nc/nwis/uv?site_no=0208732534
214,208732885,"MARSH CREEK NEAR NEW HOPE, NC",35.8169,-78.5931,3020201,EST,5.61,cfs,2019-04-11 12:30:00,3.43,ft,2019-04-11 12:30:00,5,71.64,164.04,106.86,https://waterdata.usgs.gov/nc/nwis/uv?site_no=0208732885
215,208734210,"WALNUT CREEK AT TRAILWOOD DRIVE AT RALEIGH, NC",35.7684,-78.691,3020201,EST,0,,0000-00-00 00:00:00,4.43,ft,2019-04-11 12:50:00,0,0.0,,,https://waterdata.usgs.gov/nc/nwis/uv?site_no=0208734210
216,208734795,"WALNUT CREEK AT SOUTH WILMINGTON ST AT RALEIGH, NC",35.7569,-78.6406,3020201,EST,0,,0000-00-00 00:00:00,1.31,ft,2019-04-11 12:00:00,0,0.0,,,https://waterdata.usgs.gov/nc/nwis/uv?site_no=0208734795
217,208735012,"ROCKY BRANCH BELOW PULLEN DRIVE AT RALEIGH, NC",35.78,-78.6664,3020201,EST,0.65,cfs,2019-04-11 12:30:00,4.82,ft,2019-04-11 12:30:00,0,52.22,106.56,81.25,https://waterdata.usgs.gov/nc/nwis/uv?site_no=0208735012
218,208735460,"WALNUT CREEK AT SOUTH STATE STREET AT RALEIGH, NC",35.7579,-78.6238,3020201,EST,0,,0000-00-00 00:00:00,2.69,ft,2019-04-11 12:00:00,0,0.0,,,https://waterdata.usgs.gov/nc/nwis/uv?site_no=0208735460
219,208758850,"SWIFT CREEK NEAR MCCULLARS CROSSROADS, NC",35.6936,-78.6922,3020201,EST,64.6,cfs,2019-04-11 12:45:00,2.96,ft,2019-04-11 12:45:00,6,81.34,359.89,109.99,https://waterdata.usgs.gov/nc/nwis/uv?site_no=0208758850
220,208773375,"SWIFT CREEK AT SR1555 NEAR CLAYTON, NC",35.575,-78.4986,3020201,EST,738,cfs,2019-04-11 12:45:00,7.63,ft,2019-04-11 12:45:00,0,89.55,871.31,386.0,https://waterdata.usgs.gov/nc/nwis/uv?site_no=0208773375
221,209205053,"SWIFT CREEK AT HWY 43 NR STREETS FERRY, NC",35.2308,-77.1139,3020202,EST,285,cfs,2008-06-29 23:45:00,2.15,ft,2019-04-11 12:15:00,0,36.83,56.16,37.43,https://waterdata.usgs.gov/nc/nwis/uv?site_no=0209205053
222,209399200,"HORSEPEN CREEK AT US 220 NR GREENSBORO, NC",36.1378,-79.86,3030002,EST,14,cfs,2019-04-11 12:45:00,1.8,ft,2019-04-11 12:45:00,0,66.52,116.18,53.64,https://waterdata.usgs.gov/nc/nwis/uv?site_no=0209399200
223,209553650,"BUFFALO CREEK AT SR2819 NR MCLEANSVILLE, NC",36.1281,-79.6617,3030002,EST,151,cfs,2019-04-11 12:30:00,2.75,ft,2019-04-11 12:30:00,0,78.24,172.97,57.77,https://waterdata.usgs.gov/nc/nwis/uv?site_no=0209553650
224,209722970,"SANDY CREEK AT CORNWALLIS RD NEAR DURHAM, NC",35.9832,-78.9568,3030002,EST,3.15,cfs,2019-04-11 12:45:00,2.12,ft,2019-04-11 12:45:00,0,81.72,164.92,142.53,https://waterdata.usgs.gov/nc/nwis/uv?site_no=0209722970
225,209725960,"THIRD FORK CREEK AT M.L. KING PARKWAY AT DURHAM,NC",35.9512,-78.9269,3030002,EST,0,,0000-00-00 00:00:00,1.5,ft,2019-04-11 12:50:00,0,0.0,,,https://waterdata.usgs.gov/nc/nwis/uv?site_no=0209725960
226,209734440,"BOLIN CREEK AT VILLAGE DRIVE AT CHAPEL HILL, NC",35.9223,-79.066,3030002,EST,10.8,cfs,2019-04-11 12:15:00,2.1,ft,2019-04-11 12:15:00,0,83.33,297.52,260.24,https://waterdata.usgs.gov/nc/nwis/uv?site_no=0209734440
227,209741387,"NORTHEAST CREEK TRIB AT SR1182 NR LOWES GROVE, NC",35.9154,-78.8935,3030002,EST,0,,0000-00-00 00:00:00,0.63,ft,2019-04-11 12:45:00,0,0.0,,,https://waterdata.usgs.gov/nc/nwis/uv?site_no=0209741387
228,209741955,"NORTHEAST CREEK AT SR1100 NR GENLEE, NC",35.8722,-78.9131,3030002,EST,27.5,cfs,2019-04-11 12:45:00,4.71,ft,2019-04-11 12:45:00,6,75.92,218.25,78.93,https://waterdata.usgs.gov/nc/nwis/uv?site_no=0209741955
229,209782609,"WHITE OAK CR AT MOUTH NEAR GREEN LEVEL, NC",35.7603,-78.9203,3030002,EST,9.75,cfs,2019-04-11 12:45:00,4.07,ft,2019-04-11 12:45:00,0,63.52,198.57,54.35,https://waterdata.usgs.gov/nc/nwis/uv?site_no=0209782609
230,210166029,"ROCKY R AT SR1300 NR CRUTCHFIELD CROSSROADS, NC",35.8069,-79.5275,3030003,EST,7.42,cfs,2019-04-11 12:30:00,1.25,ft,2019-04-11 12:30:00,0,77.45,218.24,83.37,https://waterdata.usgs.gov/nc/nwis/uv?site_no=0210166029
231,211139110,"YADKIN RIVER BL W KERR SCOTT DAM NEAR BUCK, NC",36.1361,-81.2233,3040101,EST,890,cfs,2019-04-11 12:00:00,2.72,ft,2019-04-11 12:00:00,0,90.91,178.71,168.15,https://waterdata.usgs.gov/nc/nwis/uv?site_no=0211139110
232,212378405,"PEE DEE R AT HWY731 BL LK TILLERY NR NORWOOD, NC",35.2007,-80.0618,3040104,EST,593,cfs,2019-04-11 12:15:00,3.67,ft,2019-04-11 12:15:00,0,20.0,9.67,11.27,https://waterdata.usgs.gov/nc/nwis/uv?site_no=0212378405
233,212393300,"W. BR ROCKY R B MTH OF S PRONG R NR CORNELIUS, NC",35.4678,-80.7903,3040105,EST,26.6,cfs,2019-04-11 12:35:00,3.72,ft,2019-04-11 12:35:00,0,80.85,248.6,105.98,https://waterdata.usgs.gov/nc/nwis/uv?site_no=0212393300
234,212414900,"MALLARD CR BL STONY CR NR HARRISBURG, NC",35.3328,-80.7158,3040105,EST,47.2,cfs,2019-04-11 12:55:00,3.35,ft,2019-04-11 12:55:00,0,80.75,363.08,108.76,https://waterdata.usgs.gov/nc/nwis/uv?site_no=0212414900
235,212419274,"CODDLE CR AT SR 1612 NEAR DAVIDSON, NC",35.5039,-80.7364,3040105,EST,38.5,cfs,2019-04-11 12:00:00,2.47,ft,2019-04-11 12:00:00,0,80.86,273.05,106.47,https://waterdata.usgs.gov/nc/nwis/uv?site_no=0212419274
236,212427947,"REEDY CREEK AT SR 2803 NR CHARLOTTE, NC",35.2564,-80.7006,3040105,EST,3.19,cfs,2019-04-11 12:20:00,2.1,ft,2019-04-11 12:20:00,0,80.39,265.83,82.01,https://waterdata.usgs.gov/nc/nwis/uv?site_no=0212427947
237,212430293,"REEDY CREEK BELOW I-485 NR PINE RIDGE, NC",35.2586,-80.6628,3040105,EST,19.7,cfs,2019-04-11 12:35:00,2.5,ft,2019-04-11 12:35:00,0,86.37,292.28,227.22,https://waterdata.usgs.gov/nc/nwis/uv?site_no=0212430293
238,212430653,"MCKEE CREEK AT SR2804 NR WILGROVE, NC",35.2539,-80.6481,3040105,EST,5.26,cfs,2019-04-11 12:35:00,1.87,ft,2019-04-11 12:35:00,0,83.37,269.74,189.89,https://waterdata.usgs.gov/nc/nwis/uv?site_no=0212430653
239,212433550,"ROCKY R AB IRISH BUFFALO CR NR ROCKY RIVER, NC",35.3217,-80.5408,3040105,EST,549,cfs,2019-04-11 12:15:00,3.75,ft,2019-04-11 12:15:00,0,82.02,461.34,86.56,https://waterdata.usgs.gov/nc/nwis/uv?site_no=0212433550
240,212466000,"CLEAR CREEK AT SR3181 NR MINT HILL, NC",35.2083,-80.58,3040105,EST,12.5,cfs,2019-04-11 12:40:00,1.71,ft,2019-04-11 12:40:00,0,81.0,275.33,97.43,https://waterdata.usgs.gov/nc/nwis/uv?site_no=0212466000
241,212467451,"GOOSE CR AT SR1524 NEAR INDIAN TRAIL, NC",35.1304,-80.6312,3040105,EST,8.46,cfs,2019-04-11 12:15:00,0.58,ft,2019-04-11 12:15:00,0,84.93,257.93,195.83,https://waterdata.usgs.gov/nc/nwis/uv?site_no=0212467451
242,212467595,"GOOSE CREEK AT SR1525 NR INDIAN TRAIL, NC",35.125,-80.6028,3040105,EST,11.7,cfs,2019-04-11 12:30:00,1.63,ft,2019-04-11 12:30:00,0,85.99,272.09,204.9,https://waterdata.usgs.gov/nc/nwis/uv?site_no=0212467595
243,212880025,"PEE DEE RIVER BELOW POWERHOUSE DAM NR PEE DEE, NC",34.9835,-79.8776,3040104,EST,0,,0000-00-00 00:00:00,10.72,ft,2019-04-11 12:00:00,0,0.0,,,https://waterdata.usgs.gov/nc/nwis/uv?site_no=0212880025
244,214196125,"CATAWBA RIVER AT NC HIGHWAY 16 NR MILLERSVILLE, NC",35.8225,-81.1905,3050101,EST,0,,0000-00-00 00:00:00,6.74,ft,2019-04-11 12:30:00,0,0.0,,,https://waterdata.usgs.gov/nc/nwis/uv?site_no=0214196125
245,214244102,"CATAWBA RIVER BL LOOKOUT SHOALS DAM NR SHARON, NC",35.7572,-81.0891,3050101,EST,0,,0000-00-00 00:00:00,12.94,ft,2019-04-11 12:30:00,0,0.0,,,https://waterdata.usgs.gov/nc/nwis/uv?site_no=0214244102
246,214264790,"CATAWBA R AT RR BRIDGE AB NC 73 AT COWANS FORD, NC",35.4277,-80.9573,3050101,EST,0,,0000-00-00 00:00:00,6.18,ft,2019-04-11 12:30:00,0,0.0,,,https://waterdata.usgs.gov/nc/nwis/uv?site_no=0214264790
247,214265808,"TORRENCE CR AT BRADFORD HILL LN NR HUNTERSVLLE, NC",35.4036,-80.8828,3050101,EST,7.93,cfs,2019-04-11 12:40:00,1.7,ft,2019-04-11 12:40:00,0,90.0,258.31,247.81,https://waterdata.usgs.gov/nc/nwis/uv?site_no=0214265808
248,214265828,"MCDOWELL CR TRIB AT SR2131 NR HICKS CROSSROADS, NC",35.4018,-80.9175,3050101,EST,1.04,cfs,2019-04-11 12:35:00,1.97,ft,2019-04-11 12:35:00,0,0.0,,,https://waterdata.usgs.gov/nc/nwis/uv?site_no=0214265828
249,214266000,"MCDOWELL CREEK NR CHARLOTTE, NC (CSW10)",35.3897,-80.921,3050101,EST,35.1,cfs,2019-04-11 12:50:00,4.18,ft,2019-04-11 12:50:00,0,80.67,283.06,71.52,https://waterdata.usgs.gov/nc/nwis/uv?site_no=0214266000
250,214266080,"GAR CREEK AT SR2074 NR CROFT, NC",35.3614,-80.8975,3050101,EST,4.7,cfs,2019-04-11 12:05:00,1.36,ft,2019-04-11 12:05:00,0,81.09,470.0,102.4,https://waterdata.usgs.gov/nc/nwis/uv?site_no=0214266080
251,214267602,"CATAWBA RIVER DNSTRM DECK MTN IS DAM NR MTN IS, NC",35.334,-80.9864,3050101,EST,0,,0000-00-00 00:00:00,10.31,ft,2019-04-11 12:45:00,0,0.0,,,https://waterdata.usgs.gov/nc/nwis/uv?site_no=0214267602
252,214269560,"KILLIAN CREEK NEAR MARIPOSA, NC",35.4342,-81.03,3050101,EST,45.1,cfs,2019-04-11 12:15:00,3.48,ft,2019-04-11 12:15:00,0,80.96,179.68,104.88,https://waterdata.usgs.gov/nc/nwis/uv?site_no=0214269560
253,214291555,"LONG CREEK NR RHYNE, NC",35.3006,-80.9728,3050101,EST,51.4,cfs,2019-04-11 12:55:00,2.25,ft,2019-04-11 12:55:00,0,80.95,389.39,85.37,https://waterdata.usgs.gov/nc/nwis/uv?site_no=0214291555
254,214295600,"PAW CR AT WILKINSON BLVD NR CHARLOTTE, NC",35.2403,-80.9744,3050101,EST,22.1,cfs,2019-04-11 12:55:00,2.12,ft,2019-04-11 12:55:00,0,83.43,539.02,195.06,https://waterdata.usgs.gov/nc/nwis/uv?site_no=0214295600
255,214297160,"BEAVERDAM CREEK AB WINDY GAP ROAD NR SHOPTON, NC",35.1697,-80.9878,3050101,EST,2.2,cfs,2019-04-11 12:30:00,0.74,ft,2019-04-11 12:30:00,0,74.05,153.85,57.89,https://waterdata.usgs.gov/nc/nwis/uv?site_no=0214297160
256,214627970,"STEWART CREEK AT STATE ST AT CHARLOTTE, NC",35.2403,-80.8683,3050103,EST,16.5,cfs,2019-04-11 12:55:00,1.62,ft,2019-04-11 12:55:00,0,77.82,160.19,113.64,https://waterdata.usgs.gov/nc/nwis/uv?site_no=0214627970
257,214640410,"LITTLE SUGAR CR BL 36TH STREET NEAR CHARLOTTE, NC",35.2503,-80.8083,3050103,EST,0,,0000-00-00 00:00:00,0.6,ft,2019-04-11 12:55:00,0,0.0,,,https://waterdata.usgs.gov/nc/nwis/uv?site_no=0214640410
258,214642825,"BRIAR CREEK NEAR CHARLOTTE, NC",35.2361,-80.7711,3050103,EST,3.74,cfs,2019-04-11 12:55:00,1.36,ft,2019-04-11 12:55:00,0,70.37,170.78,92.35,https://waterdata.usgs.gov/nc/nwis/uv?site_no=0214642825
259,214643770,"BRIAR CR AT INDEPENDENCE BLVD AT CHARLOTTE, NC",35.2108,-80.8008,3050103,EST,0,,0000-00-00 00:00:00,1.23,ft,2019-04-11 12:55:00,0,0.0,,,https://waterdata.usgs.gov/nc/nwis/uv?site_no=0214643770
260,214643820,"EDWARDS BRANCH AT SHEFFIELD DR AT CHARLOTTE, NC",35.2033,-80.7722,3050103,EST,0.65,cfs,2019-04-11 12:55:00,0.88,ft,2019-04-11 12:55:00,0,79.71,232.14,132.65,https://waterdata.usgs.gov/nc/nwis/uv?site_no=0214643820
261,214643860,"BRIAR CR BL EDWARDS BRANCH NEAR CHARLOTTE, NC",35.2061,-80.8058,3050103,EST,0,,0000-00-00 00:00:00,1.68,ft,2019-04-11 12:55:00,0,0.0,,,https://waterdata.usgs.gov/nc/nwis/uv?site_no=0214643860
262,214645022,"BRIAR CR ABOVE COLONY RD AT CHARLOTTE, NC",35.1753,-80.8308,3050103,EST,20.1,cfs,2019-04-11 12:55:00,2.6,ft,2019-04-11 12:55:00,0,81.36,259.02,122.41,https://waterdata.usgs.gov/nc/nwis/uv?site_no=0214645022
263,214645075,"TRIB TO BRIAR CREEK AT COLONY RD AT CHARLOTTE, NC",35.1689,-80.8308,3050103,EST,0.47,cfs,2019-04-11 12:55:00,1.02,ft,2019-04-11 12:55:00,0,59.5,138.24,90.38,https://waterdata.usgs.gov/nc/nwis/uv?site_no=0214645075
264,214645080,"TRIB TO BRIAR CR AT RUNNYMEDE LN AT CHARLOTTE, NC",35.1669,-80.8367,3050103,EST,0.38,cfs,2019-04-11 12:55:00,1.21,ft,2019-04-11 12:55:00,0,37.5,63.33,58.46,https://waterdata.usgs.gov/nc/nwis/uv?site_no=0214645080
265,214655255,"MCALPINE CREEK AT SR3150 NR IDLEWILD, NC",35.1758,-80.7192,3050103,EST,6.34,cfs,2019-04-11 12:15:00,1.87,ft,2019-04-11 12:15:00,0,81.71,255.65,109.5,https://waterdata.usgs.gov/nc/nwis/uv?site_no=0214655255
266,214657975,"IRVINS CREEK AT SR3168 NR CHARLOTTE, NC",35.1586,-80.7133,3050103,EST,8.15,cfs,2019-04-11 12:55:00,1.44,ft,2019-04-11 12:55:00,0,82.1,312.26,115.44,https://waterdata.usgs.gov/nc/nwis/uv?site_no=0214657975
267,214668150,"MCMULLEN CR ABOVE LINCREST PLACE AT CHARLOTTE, NC",35.1703,-80.7856,3050103,EST,0,,0000-00-00 00:00:00,1.34,ft,2019-04-11 12:55:00,0,0.0,,,https://waterdata.usgs.gov/nc/nwis/uv?site_no=0214668150
268,214678175,"STEELE CREEK AT SR1441 NR PINEVILLE, NC",35.105,-80.9536,3050103,EST,5.61,cfs,2019-04-11 12:55:00,1.2,ft,2019-04-11 12:55:00,0,80.29,246.05,96.56,https://waterdata.usgs.gov/nc/nwis/uv?site_no=0214678175
269,214685800,"SIX MILE CREEK NEAR PINEVILLE, NC",35.0104,-80.8285,3050103,EST,29.4,cfs,2019-04-11 12:40:00,3.06,ft,2019-04-11 12:40:00,0,80.98,410.61,170.73,https://waterdata.usgs.gov/nc/nwis/uv?site_no=0214685800
270,344894205,"NORTH FORK SWANNANOA RIVER NEAR WALKERTOWN, NC",35.6853,-82.3328,6010105,EST,35,cfs,2019-04-11 12:45:00,1.49,ft,2019-04-11 12:45:00,0,28.96,82.35,69.14,https://waterdata.usgs.gov/nc/nwis/uv?site_no=0344894205
271,345577330,"WEST FORK PIGEON RIVER NEAR RETREAT, NC",35.4267,-82.9197,6010106,EST,118,cfs,2019-04-11 12:30:00,1.64,ft,2019-04-11 12:30:00,5,53.92,103.51,95.93,https://waterdata.usgs.gov/nc/nwis/uv?site_no=0345577330
272,347927162,"BUCKEYE CR ABOVE BUCKEYE LAKE NEAR CANNON GAP, NC",36.2174,-81.9081,6010103,EST,0,,0000-00-00 00:00:00,1.49,ft,2019-04-11 12:40:00,0,0.0,,,https://waterdata.usgs.gov/nc/nwis/uv?site_no=0347927162
273,347927164,"BUCKEYE CR BELOW BUCKEYE LAKE NEAR CANNON GAP, NC",36.22,-81.9076,6010103,EST,0,,0000-00-00 00:00:00,0.89,ft,2019-04-11 12:40:00,0,0.0,,,https://waterdata.usgs.gov/nc/nwis/uv?site_no=0347927164
274,350011450,"CARTOOGECHAYE CREEK AT SR 1148 NEAR FRANKLIN, NC",35.1578,-83.4244,6010202,EST,0,,0000-00-00 00:00:00,1.62,ft,2019-04-11 12:30:00,0,0.0,,,https://waterdata.usgs.gov/nc/nwis/uv?site_no=0350011450
275,351706800,"CHEOAH RIVER NR BEARPEN GAP NR TAPOCO, NC",35.4383,-83.9189,6010204,EST,261,cfs,2019-04-11 12:00:00,3.41,ft,2019-04-11 12:00:00,0,73.86,133.5,102.87,https://waterdata.usgs.gov/nc/nwis/uv?site_no=0351706800
