,site_no,station_nm,dec_lat_va,dec_long_va,huc_cd,tz_cd,flow,flow_unit,flow_dt,stage,stage_unit,stage_dt,class,percentile,percent_median,percent_mean,url
0,2110400,"BUCK CREEK NEAR LONGS, SC",33.9535,-78.7197,3040206,EST,96.5,cfs,2019-03-06 09:15:00,7.45,ft,2019-03-06 09:15:00,0,88.89,293.31,212.79,https://waterdata.usgs.gov/sc/nwis/uv?site_no=02110400
1,2110500,"WACCAMAW RIVER NEAR LONGS, SC",33.9127,-78.715,3040206,EST,979,cfs,2019-03-06 08:45:00,8.17,ft,2019-03-06 08:45:00,4,22.38,53.5,42.2,https://waterdata.usgs.gov/sc/nwis/uv?site_no=02110500
2,2110550,"WACCAMAW RIVER ABOVE CONWAY, SC",33.8508,-78.8972,3040206,EST,1050,cfs,2019-03-06 09:15:00,4.86,ft,2019-03-06 09:30:00,0,25.65,40.54,42.49,https://waterdata.usgs.gov/sc/nwis/uv?site_no=02110550
3,2110701,"CRABTREE SWAMP AT CONWAY, SC",33.861,-79.0411,3040206,EST,30.1,cfs,2019-03-06 09:00:00,13.34,ft,2019-03-06 09:00:00,0,46.62,82.92,89.88,https://waterdata.usgs.gov/sc/nwis/uv?site_no=02110701
4,2110704,"WACCAMAW RIVER AT CONWAY MARINA AT CONWAY, SC",33.8329,-79.0436,3040206,EST,1180,cfs,2019-03-06 09:15:00,9.98,ft,2019-03-06 09:15:00,0,17.64,53.15,45.75,https://waterdata.usgs.gov/sc/nwis/uv?site_no=02110704
5,2110725,"AIW AT HIGHWAY 544 AT SOCASTEE, SC",33.6871,-79.0048,3040206,EST,0,,0000-00-00 00:00:00,14.39,ft,2019-03-06 09:30:00,0,0.0,,,https://waterdata.usgs.gov/sc/nwis/uv?site_no=02110725
6,2110760,"AIW @ MYRTLEWOOD GOLF COURSE @ MYRTLE BEACH, SC",33.7407,-78.8667,3040207,EST,3460,cfs,2009-09-30 23:45:00,0,,0000-00-00 00:00:00,0,88.89,384.44,339.47,https://waterdata.usgs.gov/sc/nwis/uv?site_no=02110760
7,2110777,"AIW AT HIGHWAY 9 AT NIXONS CROSSROADS, SC",33.8516,-78.6558,3040207,EST,2900,cfs,2000-09-30 23:45:00,15.68,ft,2019-03-06 09:15:00,0,74.28,154.26,136.56,https://waterdata.usgs.gov/sc/nwis/uv?site_no=02110777
8,2110802,"WACCAMAW RIVER AT BUCKSPORT, SC",33.6491,-79.0942,3040206,EST,0,,0000-00-00 00:00:00,18.97,ft,2019-03-06 09:15:00,0,0.0,,,https://waterdata.usgs.gov/sc/nwis/uv?site_no=02110802
9,2110815,"WACCAMAW R NR HAGLEY LAND. NR PAWLEYS ISLAND, SC",33.4446,-79.1739,3040206,EST,60600,cfs,2000-09-26 00:45:00,18.38,ft,2019-03-06 09:15:00,0,90.91,292.75,265.09,https://waterdata.usgs.gov/sc/nwis/uv?site_no=02110815
10,2130000,"PEE DEE RIVER AT CHERAW, SC",34.7085,-79.8762,3040201,EST,0,,0000-00-00 00:00:00,25.33,ft,2019-03-06 09:15:00,0,0.0,,,https://waterdata.usgs.gov/sc/nwis/uv?site_no=02130000
11,2130561,"PEE DEE RIVER NR BENNETTSVILLE, SC",34.6063,-79.7884,3040201,EST,35600,cfs,2019-03-06 09:15:00,79.07,ft,2019-03-06 09:15:00,0,87.67,352.48,235.88,https://waterdata.usgs.gov/sc/nwis/uv?site_no=02130561
12,2130700,"PEEDEE RIVER AT US15 AT SOCIETY HILL,SC",34.5256,-79.8328,3040201,EST,0,,0000-00-00 00:00:00,Dis,ft,2018-10-02 08:15:00,0,0.0,,,https://waterdata.usgs.gov/sc/nwis/uv?site_no=02130700
13,2130810,"PEEDEE RIVER NEAR FLORENCE,SC",34.3003,-79.6344,3040201,EST,0,,0000-00-00 00:00:00,51.31,ft,2019-03-06 09:00:00,0,0.0,,,https://waterdata.usgs.gov/sc/nwis/uv?site_no=02130810
14,2130840,"BLACK CREEK BELOW CHESTERFIELD, SC",34.6633,-80.2117,3040201,EST,159,cfs,2019-03-06 09:00:00,7.11,ft,2019-03-06 09:00:00,0,81.89,229.44,181.38,https://waterdata.usgs.gov/sc/nwis/uv?site_no=02130840
15,2130900,"BLACK CREEK NEAR MCBEE, SC",34.514,-80.1831,3040201,EST,478,cfs,2019-03-06 09:00:00,8.98,ft,2019-03-06 09:00:00,7,92.49,239.0,206.99,https://waterdata.usgs.gov/sc/nwis/uv?site_no=02130900
16,2130910,"BLACK CREEK NEAR HARTSVILLE, SC",34.3974,-80.1498,3040201,EST,578,cfs,2019-03-06 09:00:00,7.08,ft,2019-03-06 09:00:00,7,94.65,210.95,191.7,https://waterdata.usgs.gov/sc/nwis/uv?site_no=02130910
17,2130930,"BLACK CREEK AT US52 NEAR DOVESVILLE,SC",34.3867,-79.9039,3040201,EST,0,,0000-00-00 00:00:00,Dis,ft,2018-10-02 08:15:00,0,0.0,,,https://waterdata.usgs.gov/sc/nwis/uv?site_no=02130930
18,2130980,"BLACK CREEK NEAR QUINBY, SC",34.2438,-79.7448,3040201,EST,1730,cfs,2019-03-06 09:00:00,11.8,ft,2019-03-06 09:00:00,0,94.12,316.27,298.66,https://waterdata.usgs.gov/sc/nwis/uv?site_no=02130980
19,2131000,"PEE DEE RIVER AT PEEDEE, SC",34.2043,-79.5484,3040201,EST,33200,cfs,2019-03-06 09:00:00,23.32,ft,2019-03-06 09:00:00,7,91.58,237.14,194.15,https://waterdata.usgs.gov/sc/nwis/uv?site_no=02131000
20,2131010,"PEE DEE RIVER BELOW PEE DEE, SC",34.1574,-79.5534,3040201,EST,31200,cfs,2019-03-06 08:30:00,43.05,ft,2019-03-06 09:30:00,0,95.45,255.74,248.56,https://waterdata.usgs.gov/sc/nwis/uv?site_no=02131010
21,2131452,"LITTLE LYNCHES RIVER ABOVE KERSHAW, SC",34.5858,-80.5806,3040202,EST,0,,0000-00-00 00:00:00,4.43,ft,2019-03-06 09:30:00,0,0.0,,,https://waterdata.usgs.gov/sc/nwis/uv?site_no=02131452
22,2131455,"LITTLE LYNCHES RIVER NEAR KERSHAW, SC",34.5513,-80.5465,3040202,EST,0,,0000-00-00 00:00:00,6.04,ft,2019-03-06 09:00:00,0,0.0,,,https://waterdata.usgs.gov/sc/nwis/uv?site_no=02131455
23,2131472,"HANGING ROCK CREEK NR KERSHAW, SC",34.5163,-80.5828,3040202,EST,0,,0000-00-00 00:00:00,1.7,ft,2019-03-06 09:15:00,0,0.0,,,https://waterdata.usgs.gov/sc/nwis/uv?site_no=02131472
24,2131500,"LYNCHES RIVER NEAR BISHOPVILLE, SC",34.2502,-80.2137,3040202,EST,2600,cfs,2019-03-06 09:00:00,12.74,ft,2019-03-06 09:00:00,6,83.81,287.29,179.69,https://waterdata.usgs.gov/sc/nwis/uv?site_no=02131500
25,2131510,"LYNCHES RIVER AT I-95, ABOVE OLANTA,SC",34.0382,-79.9861,3040202,EST,0,,0000-00-00 00:00:00,11.07,ft,2019-03-06 09:15:00,0,0.0,,,https://waterdata.usgs.gov/sc/nwis/uv?site_no=02131510
26,2132000,"LYNCHES RIVER AT EFFINGHAM, SC",34.0515,-79.75399999999999,3040202,EST,2340,cfs,2019-03-06 09:00:00,10.35,ft,2019-03-06 09:00:00,5,74.15,153.44,119.17,https://waterdata.usgs.gov/sc/nwis/uv?site_no=02132000
27,2132715,"LITTLE PEEDEE RIVER NEAR NICHOLS,SC",34.2069,-79.1725,3040204,EST,0,,0000-00-00 00:00:00,Dis,ft,2018-10-02 11:45:00,0,0.0,,,https://waterdata.usgs.gov/sc/nwis/uv?site_no=02132715
28,2134900,"LUMBER RIVER AT NICHOLS,SC",34.226,-79.1342,3040203,EST,3350,cfs,2019-03-06 09:00:00,18.58,ft,2019-03-06 09:00:00,0,0.0,,,https://waterdata.usgs.gov/sc/nwis/uv?site_no=02134900
29,2135000,"LITTLE PEE DEE R. AT GALIVANTS FERRY, SC",34.0571,-79.247,3040204,EST,5240,cfs,2019-03-06 09:00:00,8.54,ft,2019-03-06 09:00:00,5,58.32,121.44,96.75,https://waterdata.usgs.gov/sc/nwis/uv?site_no=02135000
30,2135200,"PEE DEE RIVER AT HWY 701 NR BUCKSPORT, SC",33.661,-79.1545,3040201,EST,51600,cfs,2019-03-06 09:15:00,17.41,ft,2019-03-06 09:15:00,0,93.75,320.5,293.43,https://waterdata.usgs.gov/sc/nwis/uv?site_no=02135200
31,2135501,"BLACK RIVER AT I-95, NEAR MANNING,SC",33.8339,-80.1316,3040205,EST,0,,0000-00-00 00:00:00,17.03,ft,2019-03-06 09:30:00,0,0.0,,,https://waterdata.usgs.gov/sc/nwis/uv?site_no=02135501
32,2135615,"POCOTALIGO RIVER AT I-95, ABOVE MANNING,SC",33.7296,-80.2202,3040205,EST,0,,0000-00-00 00:00:00,8.46,ft,2019-03-06 09:15:00,0,0.0,,,https://waterdata.usgs.gov/sc/nwis/uv?site_no=02135615
33,2136000,"BLACK RIVER AT KINGSTREE, SC",33.6613,-79.8359,3040205,EST,2200,cfs,2019-03-06 09:00:00,10.01,ft,2019-03-06 09:00:00,5,66.14,148.15,95.45,https://waterdata.usgs.gov/sc/nwis/uv?site_no=02136000
34,2136030,"BLACK RIVER NEAR ANDREWS,SC",33.4904,-79.5456,3040205,EST,1420,cfs,2019-03-06 09:00:00,21.47,ft,2019-03-06 09:00:00,0,0.0,,,https://waterdata.usgs.gov/sc/nwis/uv?site_no=02136030
35,2136350,PEEDEE RIVER AT GEORGETOWN S C,33.3693,-79.2637,3040201,EST,0,,0000-00-00 00:00:00,2.72,ft,2019-03-06 09:15:00,0,0.0,,,https://waterdata.usgs.gov/sc/nwis/uv?site_no=02136350
36,2136361,"TURKEY CREEK NEAR MARYVILLE, SC",33.3285,-79.3381,3040207,EST,3.73,cfs,2019-03-06 09:00:00,1.42,ft,2019-03-06 09:00:00,0,48.95,97.9,75.05,https://waterdata.usgs.gov/sc/nwis/uv?site_no=02136361
37,2145910,"CATAWBA RIVER BL LAKE WYLIE DAM FEWELL ISLAND, SC",35.0164,-81.0016,3050103,EST,0,,0000-00-00 00:00:00,8.42,ft,2019-03-06 09:00:00,0,0.0,,,https://waterdata.usgs.gov/sc/nwis/uv?site_no=02145910
38,2146000,"CATAWBA RIVER NEAR ROCK HILL, SC",34.9849,-80.97399999999999,3050103,EST,5380,cfs,2019-03-06 09:00:00,5.3,ft,2019-03-06 09:00:00,5,55.77,118.24,103.89,https://waterdata.usgs.gov/sc/nwis/uv?site_no=02146000
39,2146110,"MANCHESTER CREEK AT ROCK HILL, SC",34.9444,-80.9797,3050103,EST,6.99,cfs,2019-03-06 09:45:00,1.81,ft,2019-03-06 09:45:00,0,76.65,188.41,94.72,https://waterdata.usgs.gov/sc/nwis/uv?site_no=02146110
40,2146800,"SUGAR CREEK NEAR FORT MILL, SC",35.006,-80.9023,3050103,EST,544,cfs,2019-03-06 09:45:00,6.52,ft,2019-03-06 09:45:00,0,70.77,142.41,121.4,https://waterdata.usgs.gov/sc/nwis/uv?site_no=02146800
41,2147020,"CATAWBA RIVER BELOW CATAWBA, SC",34.8363,-80.8795,3050103,EST,14000,cfs,2019-03-06 09:00:00,11.07,ft,2019-03-06 09:00:00,0,96.15,299.15,267.44,https://waterdata.usgs.gov/sc/nwis/uv?site_no=02147020
42,2147310,"CATAWBA RIVER AT GREAT FALLS,SC",34.5981,-80.8906,3050103,EST,0,,0000-00-00 00:00:00,355.43,ft,2019-03-06 09:30:00,0,0.0,,,https://waterdata.usgs.gov/sc/nwis/uv?site_no=02147310
43,2147403,"FISHING CREEK BELOW FORT LAWN, SC",34.6368,-80.9273,3050103,EST,492,cfs,2019-03-06 09:15:00,5.58,ft,2019-03-06 09:15:00,0,53.38,235.41,54.71,https://waterdata.usgs.gov/sc/nwis/uv?site_no=02147403
44,2147500,"ROCKY CREEK AT GREAT FALLS, SC",34.5654,-80.9198,3050103,EST,351,cfs,2019-03-06 09:30:00,4.65,ft,2019-03-06 09:30:00,5,72.41,204.66,97.39,https://waterdata.usgs.gov/sc/nwis/uv?site_no=02147500
45,2147505,"CEDAR CREEK RES. TAILRACE BELOW GREAT FALLS,SC",34.5411,-80.8753,3050103,EST,0,,0000-00-00 00:00:00,12,ft,2019-03-06 09:00:00,0,0.0,,,https://waterdata.usgs.gov/sc/nwis/uv?site_no=02147505
46,2148000,"WATEREE RIVER NR. CAMDEN, SC",34.2446,-80.654,3050104,EST,22900,cfs,2019-03-06 09:00:00,23.74,ft,2019-03-06 09:00:00,7,95.36,287.33,234.92,https://waterdata.usgs.gov/sc/nwis/uv?site_no=02148000
47,2153051,"GASTON SHOALS RESERVOIR ABOVE BLACKSBURG, SC",35.1376,-81.5979,3050105,EST,0,,0000-00-00 00:00:00,97.92,ft,2019-03-06 09:00:00,0,0.0,,,https://waterdata.usgs.gov/sc/nwis/uv?site_no=02153051
48,2153200,"BROAD RIVER NEAR BLACKSBURG, SC",35.124,-81.5879,3050105,EST,4910,cfs,2019-03-06 09:45:00,5.71,ft,2019-03-06 09:45:00,0,95.45,258.42,247.18,https://waterdata.usgs.gov/sc/nwis/uv?site_no=02153200
49,2153550,"NINETYNINE ISLAND RES. BELOW CHEROKEE FALLS, SC",35.0318,-81.4934,3050105,EST,0,,0000-00-00 00:00:00,100.92,ft,2019-03-06 09:00:00,0,0.0,,,https://waterdata.usgs.gov/sc/nwis/uv?site_no=02153550
50,2153551,"BROAD RIVER BELOW NINETYNINE ISLAND RESERVOIR,SC",35.0312,-81.4926,3050105,EST,5760,cfs,2019-03-06 09:00:00,27.54,ft,2019-03-06 09:00:00,0,94.01,295.38,262.34,https://waterdata.usgs.gov/sc/nwis/uv?site_no=02153551
51,2153590,"KINGS CREEK AT BLACKSBURG, SC",35.1185,-81.4365,3050105,EST,67.5,cfs,2019-03-06 09:00:00,3.33,ft,2019-03-06 09:00:00,0,90.97,268.92,233.48,https://waterdata.usgs.gov/sc/nwis/uv?site_no=02153590
52,2153700,"THICKETTY CREEK AT CNTY ROAD 42 NEAR GAFFNEY, SC",35.0629,-81.7145,3050105,EST,88,cfs,2019-03-06 09:45:00,3.86,ft,2019-03-06 09:45:00,0,92.31,285.71,237.07,https://waterdata.usgs.gov/sc/nwis/uv?site_no=02153700
53,2154500,"NORTH PACOLET RIVER AT FINGERVILLE, SC",35.121,-81.9859,3050105,EST,475,cfs,2019-03-06 09:15:00,4.51,ft,2019-03-06 09:15:00,7,91.52,213.0,173.21,https://waterdata.usgs.gov/sc/nwis/uv?site_no=02154500
54,2154790,"SOUTH PACOLET RIVER NR CAMPOBELLO, SC",35.1065,-82.1296,3050105,EST,195,cfs,2019-03-06 09:15:00,5.61,ft,2019-03-06 09:15:00,0,83.57,196.97,148.09,https://waterdata.usgs.gov/sc/nwis/uv?site_no=02154790
55,2154950,"LAKE WILLIAM C. BOWEN NEAR FINGERVILLE, SC",35.1126,-82.0404,3050105,EST,0,,0000-00-00 00:00:00,815.19,ft,2019-03-06 09:45:00,0,0.0,,,https://waterdata.usgs.gov/sc/nwis/uv?site_no=02154950
56,2155500,"PACOLET RIVER NEAR FINGERVILLE, SC",35.1098,-81.9595,3050105,EST,779,cfs,2019-03-06 09:15:00,6.37,ft,2019-03-06 09:30:00,7,91.16,233.23,183.06,https://waterdata.usgs.gov/sc/nwis/uv?site_no=02155500
57,2156300,LAWSONS FORK CREEK AT SPARTANBURG SC,34.9482,-81.8687,3050105,EST,213,cfs,2019-03-06 09:15:00,5.03,ft,2019-03-06 09:15:00,0,85.71,197.22,205.16,https://waterdata.usgs.gov/sc/nwis/uv?site_no=02156300
58,2156449,"NEAL SHOALS RESERVOIR NEAR CARLISLE, SC",34.6643,-81.449,3050106,EST,0,,0000-00-00 00:00:00,334.55,ft,2019-03-06 09:15:00,0,0.0,,,https://waterdata.usgs.gov/sc/nwis/uv?site_no=02156449
59,2156500,"BROAD RIVER NEAR CARLISLE, SC",34.5951,-81.4212,3050106,EST,8700,cfs,2019-03-06 09:45:00,6.77,ft,2019-03-06 09:45:00,7,90.2,209.64,150.4,https://waterdata.usgs.gov/sc/nwis/uv?site_no=02156500
60,2157000,"NORTH TYGER RIVER NEAR FAIRMONT, S. C.",34.9293,-82.0443,3050107,EST,29,cfs,1988-09-30 23:45:00,1.29,ft,2019-03-06 09:30:00,0,4.1,44.27,21.93,https://waterdata.usgs.gov/sc/nwis/uv?site_no=02157000
61,2157470,"MIDDLE TYGER RIVER NEAR GRAMLING, SC",35.0389,-82.2186,3050107,EST,117,cfs,2019-03-06 09:15:00,7.06,ft,2019-03-06 09:15:00,0,82.94,211.76,149.56,https://waterdata.usgs.gov/sc/nwis/uv?site_no=02157470
62,2157510,"MIDDLE TYGER RIVER NEAR LYMAN, SC",34.9401,-82.1234,3050107,EST,223,cfs,2019-03-06 09:45:00,2.78,ft,2019-03-06 09:45:00,0,94.74,256.76,242.31,https://waterdata.usgs.gov/sc/nwis/uv?site_no=02157510
63,2160105,"TYGER RIVER NEAR DELTA, SC",34.5354,-81.5482,3050107,EST,2480,cfs,2019-03-06 09:00:00,9.18,ft,2019-03-06 09:00:00,6,83.78,242.07,163.4,https://waterdata.usgs.gov/sc/nwis/uv?site_no=02160105
64,2160325,"BRUSHY CREEK NEAR GREENVILLE, SC",34.8834,-82.3012,3050108,EST,21.2,cfs,2019-03-06 09:15:00,1.84,ft,2019-03-06 09:15:00,0,80.59,170.97,104.38,https://waterdata.usgs.gov/sc/nwis/uv?site_no=02160325
65,2160326,"ENOREE RIVER AT PELHAM, SC",34.8565,-82.2262,3050108,EST,301,cfs,2019-03-06 09:45:00,5.03,ft,2019-03-06 09:45:00,0,81.25,213.48,148.25,https://waterdata.usgs.gov/sc/nwis/uv?site_no=02160326
66,2160381,"DURBIN CREEK ABOVE FOUNTAIN INN, SC",34.7168,-82.1737,3050108,EST,30.2,cfs,2019-03-06 09:45:00,3.14,ft,2019-03-06 09:45:00,0,79.17,202.68,110.18,https://waterdata.usgs.gov/sc/nwis/uv?site_no=02160381
67,2160390,"ENOREE RIVER NEAR WOODRUFF, SC",34.6835,-82.0398,3050108,EST,800,cfs,2019-03-06 09:45:00,3.97,ft,2019-03-06 09:45:00,0,81.6,205.66,154.01,https://waterdata.usgs.gov/sc/nwis/uv?site_no=02160390
68,2160700,"ENOREE RIVER AT WHITMIRE, SC",34.5093,-81.5982,3050108,EST,1210,cfs,2019-03-06 09:00:00,19.14,ft,2019-03-06 09:00:00,6,85.08,210.43,144.15,https://waterdata.usgs.gov/sc/nwis/uv?site_no=02160700
69,2160990,"PARR SHOALS RESERVOIR AT PARR, SC",34.2613,-81.3318,3050106,EST,0,,0000-00-00 00:00:00,260.79,ft,2019-03-06 09:00:00,0,0.0,,,https://waterdata.usgs.gov/sc/nwis/uv?site_no=02160990
70,2160991,"BROAD RIVER NEAR JENKINSVILLE, SC",34.2607,-81.3304,3050106,EST,0,,0000-00-00 00:00:00,224.2,ft,2019-03-06 09:00:00,0,0.0,,,https://waterdata.usgs.gov/sc/nwis/uv?site_no=02160991
71,2161000,"BROAD RIVER AT ALSTON, SC",34.2432,-81.3195,3050106,EST,17000,cfs,2019-03-06 09:00:00,10.21,ft,2019-03-06 09:00:00,6,88.77,275.97,193.72,https://waterdata.usgs.gov/sc/nwis/uv?site_no=02161000
72,2162035,"BROAD RIVER NEAR COLUMBIA, SC",34.0483,-81.0733,3050106,EST,23400,cfs,2019-03-06 09:45:00,157.51,ft,2019-03-06 09:45:00,0,85.71,468.47,456.73,https://waterdata.usgs.gov/sc/nwis/uv?site_no=02162035
73,2162093,"SMITH BRANCH AT NORTH MAIN ST AT COLUMBIA, SC",34.0274,-81.0418,3050106,EST,6.76,cfs,2019-03-06 09:15:00,0.56,ft,2019-03-06 09:15:00,5,67.77,133.07,43.67,https://waterdata.usgs.gov/sc/nwis/uv?site_no=02162093
74,2162285,"TABLE ROCK RESERVOIR NR CLEVELAND, SC",35.0642,-82.6725,3050109,EST,0,,0000-00-00 00:00:00,50.27,ft,2019-03-06 09:30:00,0,0.0,,,https://waterdata.usgs.gov/sc/nwis/uv?site_no=02162285
75,2162287,"TABLE ROCK RESERVOIR TAILRACE NR CLEVELAND, SC",35.0622,-82.6697,3050109,EST,85.4,cfs,2019-03-06 09:30:00,2.21,ft,2019-03-06 09:30:00,0,0.0,,,https://waterdata.usgs.gov/sc/nwis/uv?site_no=02162287
76,2162290,"SOUTH SALUDA RIVER NEAR CLEVELAND, SC",35.0634,-82.6501,3050109,EST,112,cfs,2019-03-06 09:45:00,3.32,ft,2019-03-06 09:45:00,0,91.67,453.44,402.44,https://waterdata.usgs.gov/sc/nwis/uv?site_no=02162290
77,2162350,"MIDDLE SALUDA RIVER NEAR CLEVELAND, SC",35.1201,-82.5376,3050109,EST,151,cfs,2019-03-06 09:45:00,2.85,ft,2019-03-06 08:45:00,0,90.9,193.59,182.79,https://waterdata.usgs.gov/sc/nwis/uv?site_no=02162350
78,2162500,"SALUDA RIVER NEAR GREENVILLE, SC",34.8423,-82.4807,3050109,EST,1850,cfs,2019-03-06 09:45:00,4.82,ft,2019-03-06 09:45:00,7,95.26,249.33,219.51,https://waterdata.usgs.gov/sc/nwis/uv?site_no=02162500
79,2163001,"SALUDA RIVER NEAR WILLIAMSTON, SC",34.6148,-82.444,3050109,EST,2110,cfs,2019-03-06 08:45:00,6.6,ft,2019-03-06 08:45:00,0,95.65,265.41,238.63,https://waterdata.usgs.gov/sc/nwis/uv?site_no=02163001
80,2163500,"SALUDA RIVER NEAR WARE SHOALS, SC",34.3918,-82.2234,3050109,EST,2580,cfs,2019-03-06 09:15:00,6.57,ft,2019-03-06 09:15:00,7,90.34,233.48,167.23,https://waterdata.usgs.gov/sc/nwis/uv?site_no=02163500
81,2164000,"REEDY RIVER NEAR GREENVILLE, SC",34.8001,-82.3651,3050109,EST,126,cfs,2019-03-06 09:15:00,1.17,ft,2019-03-06 09:15:00,6,75.56,150.36,78.33,https://waterdata.usgs.gov/sc/nwis/uv?site_no=02164000
82,2164110,"REEDY RIVER ABOVE FORK SHOALS, SC",34.6529,-82.2976,3050109,EST,394,cfs,2019-03-06 09:00:00,6.39,ft,2019-03-06 09:00:00,0,80.17,223.86,126.8,https://waterdata.usgs.gov/sc/nwis/uv?site_no=02164110
83,2165200,"SOUTH RABON CREEK NEAR GRAY COURT, SC",34.5201,-82.1571,3050109,EST,67.7,cfs,2019-03-06 09:00:00,1.65,ft,2019-03-06 09:00:00,6,81.33,178.86,117.76,https://waterdata.usgs.gov/sc/nwis/uv?site_no=02165200
84,2166500,"LAKE GREENWOOD NEAR CHAPPELLS, SC",34.1728,-81.9035,3050109,EST,0,,0000-00-00 00:00:00,438.27,ft,2019-03-06 09:00:00,0,0.0,,,https://waterdata.usgs.gov/sc/nwis/uv?site_no=02166500
85,2166501,"LAKE GREENWOOD TAILRACE NR CHAPPELLS, SC",34.1676,-81.9079,3050109,EST,6220,cfs,2019-03-06 09:00:00,14.38,ft,2019-03-06 09:00:00,0,95.45,509.84,380.75,https://waterdata.usgs.gov/sc/nwis/uv?site_no=02166501
86,2167000,"SALUDA RIVER AT CHAPPELLS, SC",34.1746,-81.86399999999999,3050109,EST,7310,cfs,2019-03-06 09:15:00,12.51,ft,2019-03-06 09:15:00,7,95.06,348.1,247.7,https://waterdata.usgs.gov/sc/nwis/uv?site_no=02167000
87,2167450,"LITTLE RIVER NR SILVERSTREET, SC",34.2096,-81.7632,3050109,EST,523,cfs,2019-03-06 09:30:00,6.07,ft,2019-03-06 09:30:00,0,84.35,309.47,165.51,https://waterdata.usgs.gov/sc/nwis/uv?site_no=02167450
88,2167582,"BUSH RIVER NR PROSPERITY, SC",34.1688,-81.6104,3050109,EST,256,cfs,2019-03-06 09:30:00,3.88,ft,2019-03-06 09:30:00,0,80.62,248.54,107.3,https://waterdata.usgs.gov/sc/nwis/uv?site_no=02167582
89,2167705,"LITTLE SALUDA RIVER NEAR SALUDA, SC",34.0446,-81.6971,3050109,EST,189,cfs,2019-03-06 09:45:00,6.03,ft,2019-03-06 09:45:00,0,70.58,278.76,105.37,https://waterdata.usgs.gov/sc/nwis/uv?site_no=02167705
90,2168500,"LAKE MURRAY NEAR COLUMBIA, SC",34.0521,-81.2206,3050109,EST,0,,0000-00-00 00:00:00,356.62,ft,2019-03-06 09:45:00,0,0.0,,,https://waterdata.usgs.gov/sc/nwis/uv?site_no=02168500
91,2168501,"LAKE MURRAY TAILRACE NEAR COLUMBIA, SC",34.0535,-81.2168,3050109,EST,0,,0000-00-00 00:00:00,73.45,ft,2019-03-06 09:00:00,0,0.0,,,https://waterdata.usgs.gov/sc/nwis/uv?site_no=02168501
92,2168504,"SALUDA RIVER BELOW LK MURRAY DAM NR COLUMBIA, SC",34.051,-81.2095,3050109,EST,775,cfs,2019-03-06 09:45:00,3.4,ft,2019-03-06 09:45:00,0,36.01,49.68,24.69,https://waterdata.usgs.gov/sc/nwis/uv?site_no=02168504
93,2168900,"SALUDA RIVER AT I-20, NEAR COLUMBIA,SC",34.025999999999996,-81.1279,3050109,EST,1070,cfs,2019-03-06 09:15:00,163.32,ft,2019-03-06 09:15:00,0,0.0,,,https://waterdata.usgs.gov/sc/nwis/uv?site_no=02168900
94,2169000,"SALUDA RIVER NEAR COLUMBIA, SC",34.014,-81.0879,3050106,EST,1050,cfs,2019-03-06 09:15:00,2.6,ft,2019-03-06 09:15:00,5,30.29,58.66,30.09,https://waterdata.usgs.gov/sc/nwis/uv?site_no=02169000
95,2169500,"CONGAREE RIVER AT COLUMBIA, SC",33.9932,-81.0498,3050110,EST,25800,cfs,2019-03-06 09:00:00,10.09,ft,2019-03-06 09:00:00,6,86.44,290.54,186.38,https://waterdata.usgs.gov/sc/nwis/uv?site_no=02169500
96,2169505,"ROCKY BRANCH AT PICKENS ST AT COLUMBIA, SC",33.9949,-81.0237,3050110,EST,0,,0000-00-00 00:00:00,2.7,ft,2019-03-06 09:25:00,0,0.0,,,https://waterdata.usgs.gov/sc/nwis/uv?site_no=02169505
97,2169506,"ROCKY BRANCH @ WHALEY ST. AT COLUMBIA, SC",33.9875,-81.0275,3050110,EST,0,,0000-00-00 00:00:00,1.02,ft,2019-03-06 09:30:00,0,0.0,,,https://waterdata.usgs.gov/sc/nwis/uv?site_no=02169506
98,2169568,"PEN BRANCH AT COLUMBIA, SC",34.0129,-80.982,3050110,EST,0,,0000-00-00 00:00:00,0.78,ft,2019-03-06 09:15:00,0,0.0,,,https://waterdata.usgs.gov/sc/nwis/uv?site_no=02169568
99,2169570,"GILLS CREEK AT COLUMBIA, SC",33.9896,-80.9743,3050110,EST,188,cfs,2019-03-06 09:00:00,2.94,ft,2019-03-06 09:00:00,7,90.25,264.79,193.71,https://waterdata.usgs.gov/sc/nwis/uv?site_no=02169570
100,2169625,"CONGAREE RIVER AT CONGAREE NP NEAR GADSDEN, SC",33.8107,-80.867,3050110,EST,0,,0000-00-00 00:00:00,16.87,ft,2019-03-06 09:00:00,0,0.0,,,https://waterdata.usgs.gov/sc/nwis/uv?site_no=02169625
101,2169672,"CEDAR CREEK AT CONGAREE NP NEAR GADSDEN, SC",33.8163,-80.8273,3050110,EST,0,,0000-00-00 00:00:00,9.99,ft,2019-03-06 09:00:00,0,0.0,,,https://waterdata.usgs.gov/sc/nwis/uv?site_no=02169672
102,2169750,"CONGAREE RIVER AT U.S. HWY 601 NR. FORT MOTTE, SC",33.7531,-80.645,3050110,EST,0,,0000-00-00 00:00:00,22.11,ft,2019-03-06 09:15:00,0,0.0,,,https://waterdata.usgs.gov/sc/nwis/uv?site_no=02169750
103,2169810,"SANTEE R AT TREZESVANTS LANDING NR FT MOTTE, SC",33.7313,-80.6284,3050110,EST,0,,0000-00-00 00:00:00,81.61,ft,2019-03-06 09:00:00,0,0.0,,,https://waterdata.usgs.gov/sc/nwis/uv?site_no=02169810
104,2169921,"LAKE MARION NEAR ELLOREE, SC",33.5521,-80.5042,3050111,EST,0,,0000-00-00 00:00:00,76.52,ft,2019-03-06 09:15:00,0,0.0,,,https://waterdata.usgs.gov/sc/nwis/uv?site_no=02169921
105,2171000,"LAKE MARION NEAR PINEVILLE, SC",33.4502,-80.1637,3050112,EST,0,,0000-00-00 00:00:00,76.45,ft,2019-03-06 09:30:00,0,0.0,,,https://waterdata.usgs.gov/sc/nwis/uv?site_no=02171000
106,2171001,"SANTEE RIVER @ LK MARION TAILRACE NR PINEVILLE, SC",33.4502,-80.1637,3050112,EST,0,,0000-00-00 00:00:00,45.52,ft,2019-03-06 09:00:00,0,0.0,,,https://waterdata.usgs.gov/sc/nwis/uv?site_no=02171001
107,2171500,"SANTEE RIVER NEAR PINEVILLE, SC",33.4543,-80.1415,3050112,EST,4080,cfs,2019-02-25 13:15:00,21.71,ft,2019-03-06 09:15:00,0,79.14,632.56,83.94,https://waterdata.usgs.gov/sc/nwis/uv?site_no=02171500
108,2171635,"LK MOULTRIE AT REDIVERSION NR RUSSELLVILLE, SC",33.3989,-79.9975,3050201,EST,0,,0000-00-00 00:00:00,75.1,ft,2019-03-06 09:00:00,0,0.0,,,https://waterdata.usgs.gov/sc/nwis/uv?site_no=02171635
109,2171645,"REDIV CANAL AT SANTEE RIVER NR ST STEPHEN, SC",33.4275,-79.915,3050112,EST,19600,cfs,2019-03-06 09:30:00,24.41,ft,2019-03-06 09:30:00,5,59.14,142.03,141.49,https://waterdata.usgs.gov/sc/nwis/uv?site_no=02171645
110,2171700,"SANTEE RIVER NR JAMESTOWN, SC",33.3049,-79.6781,3050112,EST,33700,cfs,2019-03-06 09:30:00,15.57,ft,2019-03-06 09:30:00,0,90.16,171.94,180.14,https://waterdata.usgs.gov/sc/nwis/uv?site_no=02171700
111,2171800,"NORTH SANTEE RIVER NR NORTH SANTEE, SC",33.2085,-79.3826,3050112,EST,0,,0000-00-00 00:00:00,8.38,ft,2019-03-06 09:15:00,0,0.0,,,https://waterdata.usgs.gov/sc/nwis/uv?site_no=02171800
112,2171850,"SOUTH SANTEE RIVER NR MCCLELLANVILLE, SC",33.1841,-79.4059,3050112,EST,0,,0000-00-00 00:00:00,11.53,ft,2019-03-06 09:15:00,0,0.0,,,https://waterdata.usgs.gov/sc/nwis/uv?site_no=02171850
113,2171905,"S. SANTEE R @ STATE PIER NR MCCLELLANVILLE, SC",33.1543,-79.3542,3050112,EST,0,,0000-00-00 00:00:00,24.15,ft,2019-03-06 09:15:00,0,0.0,,,https://waterdata.usgs.gov/sc/nwis/uv?site_no=02171905
114,2172000,"LAKE MOULTRIE NEAR PINOPOLIS, SC",33.2446,-79.9915,3050201,EST,0,,0000-00-00 00:00:00,75.14,ft,2019-03-06 09:45:00,0,0.0,,,https://waterdata.usgs.gov/sc/nwis/uv?site_no=02172000
115,2172001,"LAKE MOULTRIE NEAR PINOPOLIS, SC (TAILRACE)",33.2446,-79.9915,3050201,EST,0,,0000-00-00 00:00:00,6.65,ft,2019-03-05 06:15:00,0,0.0,,,https://waterdata.usgs.gov/sc/nwis/uv?site_no=02172001
116,2172002,"LAKE MOULTRIE TAILRACE CANAL AT MONCKS CORNER, SC",33.2152,-79.9745,3050201,EST,17200,cfs,2019-03-06 08:45:00,8,ft,2019-03-06 08:45:00,0,94.12,347.47,350.62,https://waterdata.usgs.gov/sc/nwis/uv?site_no=02172002
117,2172020,"W BRANCH COOPER R @ PIMLICO NR MONCKS CORNER, SC",33.0935,-79.949,3050201,EST,0,,0000-00-00 00:00:00,13.84,ft,2019-03-06 09:30:00,0,0.0,,,https://waterdata.usgs.gov/sc/nwis/uv?site_no=02172020
118,2172035,"TURKEY CREEK ABOVE HUGER, SC",33.1316,-79.7837,3050201,EST,9.09,cfs,2019-03-06 09:00:00,4.62,ft,2019-03-06 09:00:00,0,36.38,83.78,53.16,https://waterdata.usgs.gov/sc/nwis/uv?site_no=02172035
119,2172040,"BACK RIVER AT DUPONT INTAKE NR KITTREDGE, SC",33.0638,-79.957,3050201,EST,-5180,cfs,2019-03-06 09:30:00,17.27,ft,2019-03-06 09:30:00,0,0.0,,,https://waterdata.usgs.gov/sc/nwis/uv?site_no=02172040
120,2172050,"COOPER R NR GOOSE CREEK, SC",33.0577,-79.9362,3050201,EST,0,,0000-00-00 00:00:00,18.12,ft,2019-03-06 09:15:00,0,0.0,,,https://waterdata.usgs.gov/sc/nwis/uv?site_no=02172050
121,2172053,"COOPER R AT MOBAY NR N CHARLESTON, SC",32.9835,-79.9229,3050201,EST,0,,0000-00-00 00:00:00,10.44,ft,2019-03-06 09:00:00,0,0.0,,,https://waterdata.usgs.gov/sc/nwis/uv?site_no=02172053
122,2172300,"MCTIER CREEK (RD 209) NEAR MONETTA, SC",33.7535,-81.6018,3050204,EST,24.4,cfs,2019-03-06 09:30:00,2.84,ft,2019-03-06 09:30:00,0,75.67,131.18,122.31,https://waterdata.usgs.gov/sc/nwis/uv?site_no=02172300
123,2172558,"SOUTH FORK EDISTO RIVER ABOVE SPRINGFIELD,SC",33.5203,-81.4103,3050204,EST,683,cfs,2019-03-06 09:45:00,13.42,ft,2019-03-06 09:45:00,0,75.0,137.7,145.11,https://waterdata.usgs.gov/sc/nwis/uv?site_no=02172558
124,2173000,"SOUTH FORK EDISTO RIVER NEAR DENMARK, SC",33.3932,-81.1332,3050204,EST,1190,cfs,2019-03-06 09:15:00,6.51,ft,2019-03-06 09:15:00,5,66.67,125.26,103.65,https://waterdata.usgs.gov/sc/nwis/uv?site_no=02173000
125,2173030,"SOUTH FORK EDISTO RIVER NEAR COPE, SC",33.359,-81.0595,3050204,EST,1210,cfs,2019-03-06 09:00:00,9.1,ft,2019-03-06 09:00:00,0,76.52,132.75,121.52,https://waterdata.usgs.gov/sc/nwis/uv?site_no=02173030
126,2173051,"SOUTH FORK EDISTO RIVER NEAR BAMBERG, SC",33.3371,-81.0187,3050204,EST,1490,cfs,2019-03-06 09:00:00,10.49,ft,2019-03-06 09:00:00,0,80.79,126.81,121.05,https://waterdata.usgs.gov/sc/nwis/uv?site_no=02173051
127,2173212,"CEDAR CREEK NEAR THOR, SC",33.69,-81.2542,3050203,EST,30.9,cfs,2019-03-06 09:15:00,2.51,ft,2019-03-06 09:15:00,0,88.89,180.7,175.37,https://waterdata.usgs.gov/sc/nwis/uv?site_no=02173212
128,2173300,"NORTH FORK EDISTO RIVER NR NORTH, SC AT HWY 321",33.5904,-81.1054,3050203,EST,0,,0000-00-00 00:00:00,9.57,ft,2019-03-06 09:30:00,0,0.0,,,https://waterdata.usgs.gov/sc/nwis/uv?site_no=02173300
129,2173500,"NORTH FORK EDISTO RIVER AT ORANGEBURG, SC",33.4835,-80.8734,3050203,EST,1070,cfs,2019-03-06 09:00:00,6.87,ft,2019-03-06 09:00:00,5,63.75,124.42,99.45,https://waterdata.usgs.gov/sc/nwis/uv?site_no=02173500
130,2174045,"EDISTO RIVER AT I-95, ABOVE CANADYS,SC",33.0903,-80.6497,3050206,EST,0,,0000-00-00 00:00:00,13.66,ft,2019-03-06 09:30:00,0,0.0,,,https://waterdata.usgs.gov/sc/nwis/uv?site_no=02174045
131,2175000,"EDISTO RIVER NR GIVHANS, SC",33.0279,-80.3915,3050205,EST,2840,cfs,2019-03-06 09:30:00,7.36,ft,2019-03-06 09:30:00,5,35.42,82.56,62.57,https://waterdata.usgs.gov/sc/nwis/uv?site_no=02175000
132,2175500,"SALKEHATCHIE RIVER NEAR MILEY, SC",32.989000000000004,-81.0526,3050207,EST,486,cfs,2019-03-06 09:45:00,3.55,ft,2019-03-06 09:45:00,5,58.95,115.17,87.43,https://waterdata.usgs.gov/sc/nwis/uv?site_no=02175500
133,2176500,"COOSAWHATCHIE RIVER NEAR HAMPTON, SC",32.8363,-81.1318,3050208,EST,202,cfs,2019-03-06 09:15:00,6.49,ft,2019-03-06 09:15:00,5,45.67,91.82,52.14,https://waterdata.usgs.gov/sc/nwis/uv?site_no=02176500
134,2177000,"CHATTOOGA RIVER NEAR CLAYTON, GA",34.814,-83.306,3060102,EST,1590,cfs,2019-03-06 09:00:00,2.71,ft,2019-03-06 09:00:00,7,91.29,190.19,167.8,https://waterdata.usgs.gov/sc/nwis/uv?site_no=02177000
135,2186000,"TWELVEMILE CREEK NEAR LIBERTY, SC",34.8015,-82.7485,3060101,EST,408,cfs,2019-03-06 09:00:00,3.2,ft,2019-03-06 09:00:00,6,81.69,191.55,111.69,https://waterdata.usgs.gov/sc/nwis/uv?site_no=02186000
136,2186702,"EIGHTEENMILE CREEK BELOW PENDLETON,SC",34.645,-82.8006,3060101,EST,129,cfs,2019-03-06 09:15:00,4.36,ft,2019-03-06 09:15:00,0,83.33,179.67,195.34,https://waterdata.usgs.gov/sc/nwis/uv?site_no=02186702
137,2187010,"HARTWELL LAKE NEAR ANDERSON, SC",34.5083,-82.8553,3060102,EST,0,,0000-00-00 00:00:00,661.82,ft,2019-03-06 09:00:00,0,0.0,,,https://waterdata.usgs.gov/sc/nwis/uv?site_no=02187010
138,2187910,"ROCKY RIVER NR STARR, SC",34.3832,-82.5774,3060103,EST,309,cfs,2019-03-06 09:00:00,5.73,ft,2019-03-06 09:00:00,0,89.29,238.61,154.52,https://waterdata.usgs.gov/sc/nwis/uv?site_no=02187910
139,2188100,"RUSSELL LAKE ABOVE CALHOUN FALLS, SC",34.1011,-82.6181,3060103,EST,0,,0000-00-00 00:00:00,474.77,ft,2019-03-06 09:00:00,0,0.0,,,https://waterdata.usgs.gov/sc/nwis/uv?site_no=02188100
140,2192500,"LITTLE RIVER NEAR MT. CARMEL, SC",34.0715,-82.5007,3060103,EST,510,cfs,2019-03-06 09:00:00,4.61,ft,2019-03-06 09:00:00,6,80.55,230.77,121.95,https://waterdata.usgs.gov/sc/nwis/uv?site_no=02192500
141,2193900,"THURMOND LAKE NEAR PLUM BRANCH, SC",33.8417,-82.345,3060103,EST,0,,0000-00-00 00:00:00,329.36,ft,2019-03-06 08:45:00,0,0.0,,,https://waterdata.usgs.gov/sc/nwis/uv?site_no=02193900
142,2196000,"STEVENS CREEK NEAR MODOC, SC",33.7293,-82.1818,3060107,EST,953,cfs,2019-03-06 09:00:00,4.76,ft,2019-03-06 09:00:00,6,76.61,255.5,115.9,https://waterdata.usgs.gov/sc/nwis/uv?site_no=02196000
143,2196483,"SAVANNAH RVR AT STEVENS CREEK DAM NR MORGANA, SC",33.5629,-82.0509,3060107,EST,0,,0000-00-00 00:00:00,187.3,ft,2019-03-06 09:00:00,0,0.0,,,https://waterdata.usgs.gov/sc/nwis/uv?site_no=02196483
144,2196690,"HORSE CREEK AT CLEARWATER, SC",33.4782,-81.9076,3060106,EST,244,cfs,2019-03-06 09:00:00,11.44,ft,2019-03-06 09:00:00,0,92.31,122.92,125.61,https://waterdata.usgs.gov/sc/nwis/uv?site_no=02196690
145,2198760,"SAVANNAH RIVER ABOVE HARDEEVILLE, SC",32.3496,-81.1248,3060109,EST,0,,0000-00-00 00:00:00,10.46,ft,2019-03-06 09:15:00,0,0.0,,,https://waterdata.usgs.gov/sc/nwis/uv?site_no=02198760
146,21108125,"WACCAMAW RIVER NEAR PAWLEYS ISLAND, SC",33.5066,-79.127,3040206,EST,0,,0000-00-00 00:00:00,7.31,ft,2019-03-06 09:15:00,0,0.0,,,https://waterdata.usgs.gov/sc/nwis/uv?site_no=021108125
147,21313485,"BUFFALO CREEK AT MT PISGAH, SC",34.5822,-80.4569,3040202,EST,0,,0000-00-00 00:00:00,5.04,ft,2019-03-06 09:00:00,0,0.0,,,https://waterdata.usgs.gov/sc/nwis/uv?site_no=021313485
148,21355015,"TEARCOAT BRANCH AT I-95, NEAR MANNING,SC",33.813,-80.1516,3040205,EST,0,,0000-00-00 00:00:00,6.67,ft,2019-03-06 09:30:00,0,0.0,,,https://waterdata.usgs.gov/sc/nwis/uv?site_no=021355015
149,21457492,"ALLISON CREEK AT RD 114 NEAR YORK, SC",35.065,-81.1383,3050101,EST,76,cfs,2019-03-06 09:30:00,4.55,ft,2019-03-06 09:30:00,0,90.91,267.61,260.63,https://waterdata.usgs.gov/sc/nwis/uv?site_no=021457492
150,21459367,"BIG DUTCHMAN CREEK AT ROCK HILL, SC",34.9868,-81.0083,3050103,EST,21.7,cfs,2019-03-06 09:00:00,1.6,ft,2019-03-06 09:00:00,0,59.79,129.94,108.34,https://waterdata.usgs.gov/sc/nwis/uv?site_no=021459367
151,21473415,"FISHING CREEK @ HWY 5 BELOW YORK, SC",34.975,-81.18,3050103,EST,36.8,cfs,2019-03-06 09:30:00,3.06,ft,2019-03-06 09:30:00,0,90.91,374.36,312.93,https://waterdata.usgs.gov/sc/nwis/uv?site_no=021473415
152,21473426,"TOOLS FORK CREEK NEAR ROCK HILL, SC",34.9565,-81.1062,3050103,EST,14.4,cfs,2019-03-06 09:45:00,2.54,ft,2019-03-06 09:45:00,0,78.85,227.49,174.76,https://waterdata.usgs.gov/sc/nwis/uv?site_no=021473426
153,21473428,"WILDCAT CREEK BELOW ROCK HILL, SC",34.8896,-81.0692,3050103,EST,35.4,cfs,2019-03-06 09:00:00,2.85,ft,2019-03-06 09:00:00,0,71.36,171.84,134.09,https://waterdata.usgs.gov/sc/nwis/uv?site_no=021473428
154,21474095,"GREAT FALLS RESERVOIR TAILRACE AT GREAT FALLS,SC",34.558,-80.8932,3050103,EST,0,,0000-00-00 00:00:00,282.4,ft,2019-03-06 09:15:00,0,0.0,,,https://waterdata.usgs.gov/sc/nwis/uv?site_no=021474095
155,21556524,"LAKE BLALOCK NEAR COWPENS, SC",35.0582,-81.8679,3050105,EST,0,,0000-00-00 00:00:00,707.24,ft,2019-03-06 09:00:00,0,0.0,,,https://waterdata.usgs.gov/sc/nwis/uv?site_no=021556524
156,21556525,"PACOLET RIVER BELOW LAKE BLALOCK NEAR COWPENS, SC",35.0476,-81.8557,3050105,EST,939,cfs,2019-03-06 09:45:00,3.79,ft,2019-03-06 09:45:00,0,92.55,250.4,218.06,https://waterdata.usgs.gov/sc/nwis/uv?site_no=021556525
157,21564493,"BROAD RIVER BELOW NEAL SHOALS RES. NR CARLISLE,SC",34.6631,-81.4472,3050106,EST,Eqp,cfs,2019-03-06 09:45:00,Eqp,ft,2019-03-06 09:45:00,0,83.33,404.49,466.02,https://waterdata.usgs.gov/sc/nwis/uv?site_no=021564493
158,21603273,"ROCKY CREEK NEAR WADE HAMPTON,SC",34.8561,-82.2683,3050108,EST,0,,0000-00-00 00:00:00,839.56,ft,2019-03-06 09:30:00,0,0.0,,,https://waterdata.usgs.gov/sc/nwis/uv?site_no=021603273
159,21622845,"SOUTH SALUDA RIVER NEAR ROCKY BOTTOM,SC",35.0608,-82.705,3050109,EST,64.1,cfs,2019-03-06 09:45:00,1.69,ft,2019-03-06 09:45:00,0,0.0,,,https://waterdata.usgs.gov/sc/nwis/uv?site_no=021622845
160,21622847,"SLICKING CREEK NEAR ROCKY BOTTOM,SC",35.0678,-82.6981,3050109,EST,18.7,cfs,2019-03-06 09:45:00,0.61,ft,2019-03-06 09:45:00,0,0.0,,,https://waterdata.usgs.gov/sc/nwis/uv?site_no=021622847
161,21623950,"NORTH SALUDA RIVER NEAR HIGHLAND,SC",35.1672,-82.3647,3050109,EST,32.3,cfs,2019-03-06 09:15:00,2.85,ft,2019-03-06 09:15:00,0,0.0,,,https://waterdata.usgs.gov/sc/nwis/uv?site_no=021623950
162,21623957,"BIG FALLS CREEK NEAR TIGERVILLE,SC",35.17,-82.4028,3050109,EST,42.8,cfs,2019-03-06 09:15:00,1.41,ft,2019-03-06 09:15:00,0,0.0,,,https://waterdata.usgs.gov/sc/nwis/uv?site_no=021623957
163,21623961,"NORTH SALUDA RESERVOIR NEAR TIGERVILLE,SC",35.1417,-82.4086,3050109,EST,0,,0000-00-00 00:00:00,28.4,ft,2019-03-06 09:30:00,0,0.0,,,https://waterdata.usgs.gov/sc/nwis/uv?site_no=021623961
164,21623975,"NORTH SALUDA RIVER ABOVE SLATER,SC",35.0839,-82.46,3050109,EST,299,cfs,2019-03-06 09:15:00,6.09,ft,2019-03-06 09:15:00,0,78.52,286.12,209.09,https://waterdata.usgs.gov/sc/nwis/uv?site_no=021623975
165,21650905,"REEDY RIVER NEAR WATERLOO, SC",34.3914,-82.1394,3050109,EST,778,cfs,2019-03-06 08:45:00,7.33,ft,2019-03-06 08:45:00,0,92.86,219.77,222.85,https://waterdata.usgs.gov/sc/nwis/uv?site_no=021650905
166,21652801,"NORTH RABON CREEK NEAR HICKORY TAVERN, SC",34.525,-82.1383,3050109,EST,76.2,cfs,2019-03-06 08:45:00,5.66,ft,2019-03-06 08:45:00,0,90.0,187.68,199.58,https://waterdata.usgs.gov/sc/nwis/uv?site_no=021652801
167,21695075,"CONGAREE RIVER BELOW CAYCE,SC",33.9324,-81.0173,3050110,EST,0,,0000-00-00 00:00:00,105.55,ft,2019-03-06 09:15:00,0,0.0,,,https://waterdata.usgs.gov/sc/nwis/uv?site_no=021695075
168,21720368,"FRENCH QUARTER CREEK NEAR HUGER,SC",33.0285,-79.8541,3050201,EST,0,,0000-00-00 00:00:00,8,ft,2019-03-06 09:00:00,0,0.0,,,https://waterdata.usgs.gov/sc/nwis/uv?site_no=021720368
169,21720508,"COOPER RIVER ABOVE GOOSE CREEK,SC",33.0158,-79.9068,3050201,EST,0,,0000-00-00 00:00:00,9.64,ft,2019-03-06 09:00:00,0,0.0,,,https://waterdata.usgs.gov/sc/nwis/uv?site_no=021720508
170,21720677,"COOPER RIVER @ FILBIN CREEK @ NORTH CHARLESTON, SC",32.8905,-79.9629,3050201,EST,0,,0000-00-00 00:00:00,13.29,ft,2019-03-06 09:15:00,0,0.0,,,https://waterdata.usgs.gov/sc/nwis/uv?site_no=021720677
171,21720698,"WANDO RIVER ABOVE MT PLEASANT, SC",32.8591,-79.8962,3050201,EST,0,,0000-00-00 00:00:00,20.84,ft,2019-03-06 09:15:00,0,0.0,,,https://waterdata.usgs.gov/sc/nwis/uv?site_no=021720698
172,21720709,"COOPER RIVER AT U.S. HWY 17 AT CHARLESTON, SC",32.8024,-79.9101,3050201,EST,0,,0000-00-00 00:00:00,9.02,ft,2019-03-06 09:15:00,0,0.0,,,https://waterdata.usgs.gov/sc/nwis/uv?site_no=021720709
173,21720710,"COOPER RVR @ CUSTOMS HOUSE (AUX) @ CHARLESTON, SC",32.7805,-79.9237,3050201,EST,0,,0000-00-00 00:00:00,20.84,ft,2019-03-06 09:00:00,0,0.0,,,https://waterdata.usgs.gov/sc/nwis/uv?site_no=021720710
174,21720711,"COOPER RIVER AT CUSTOMS HOUSE AT CHARLESTON, SC",32.7805,-79.9237,3050201,EST,0,,0000-00-00 00:00:00,20.83,ft,2019-03-06 09:00:00,0,0.0,,,https://waterdata.usgs.gov/sc/nwis/uv?site_no=021720711
175,21720825,"ASHLEY RIVER BELOW SUMMERVILLE, SC",32.9258,-80.1517,3050202,EST,0,,0000-00-00 00:00:00,11.32,ft,2019-03-06 08:45:00,0,0.0,,,https://waterdata.usgs.gov/sc/nwis/uv?site_no=021720825
176,21720869,"ASHLEY RIVER NEAR NORTH CHARLESTON, SC",32.8346,-80.0237,3050202,EST,0,,0000-00-00 00:00:00,11.47,ft,2019-03-06 09:30:00,0,0.0,,,https://waterdata.usgs.gov/sc/nwis/uv?site_no=021720869
177,21989784,"L BACK RIVER ABOVE LUCKNOW CANAL, NR LIMEHOUSE, SC",32.1858,-81.1179,3060109,EST,0,,0000-00-00 00:00:00,4.33,ft,2019-03-06 09:30:00,0,0.0,,,https://waterdata.usgs.gov/sc/nwis/uv?site_no=021989784
178,21989791,"LITTLE BACK RIVER AT F&W DOCK, NEAR LIMEHOUSE, SC",32.1708,-81.1182,3060109,EST,0,,0000-00-00 00:00:00,4.22,ft,2019-03-06 09:45:00,0,0.0,,,https://waterdata.usgs.gov/sc/nwis/uv?site_no=021989791
179,214676115,"MCALPINE CREEK AT SR2964 NR CAMP COX, SC",35.0408,-80.8917,3050103,EST,210,cfs,2019-03-06 09:15:00,2.24,ft,2019-03-06 09:15:00,0,73.28,139.07,126.58,https://waterdata.usgs.gov/sc/nwis/uv?site_no=0214676115
180,217206935,"COOPER RVR @ PORTS AUTHORITY PIER K, CHARLESTON SC",32.8557,-79.9527,3050201,EST,0,,0000-00-00 00:00:00,15.19,ft,2019-03-06 09:00:00,0,0.0,,,https://waterdata.usgs.gov/sc/nwis/uv?site_no=0217206935
181,217206962,"WANDO RIVER AT CAINHOY BELOW WANDO,SC",32.9243,-79.8327,3050201,EST,0,,0000-00-00 00:00:00,15.53,ft,2019-03-06 09:00:00,0,0.0,,,https://waterdata.usgs.gov/sc/nwis/uv?site_no=0217206962
182,219897993,"SAVANNAH RIVER AT ELBA ISLAND, NEAR SAVANNAH, GA",32.1031,-81.0069,3050208,EST,0,,0000-00-00 00:00:00,3.61,ft,2019-03-06 09:30:00,0,0.0,,,https://waterdata.usgs.gov/sc/nwis/uv?site_no=0219897993
183,330428079214800,"SKRINE CREEK NEAR MCCLELLENVILLE,SC",33.0744,-79.3633,3050209,EST,0,,0000-00-00 00:00:00,10.3,ft,2019-03-06 09:15:00,0,0.0,,,https://waterdata.usgs.gov/sc/nwis/uv?site_no=330428079214800
184,333250079240400,"BLACK RIVER AT BROWNS FERRY RD NEAR GEORGETOWN, SC",33.5472,-79.4011,3040205,EST,0,,0000-00-00 00:00:00,Dis,ft,2018-10-03 11:45:00,0,0.0,,,https://waterdata.usgs.gov/sc/nwis/uv?site_no=333250079240400
185,333718079255900,"BLACK MINGO CREEK AT SC51 NEAR ANDREWS,SC",33.6217,-79.4331,3040205,EST,0,,0000-00-00 00:00:00,Dis,ft,2018-10-03 11:45:00,0,0.0,,,https://waterdata.usgs.gov/sc/nwis/uv?site_no=333718079255900
186,335025079265600,LYNCHES RIVER AT HWY 41/51 BRIDGE,33.8404,-79.4487,3040202,EST,0,,0000-00-00 00:00:00,Dis,ft,2018-10-03 10:45:00,0,0.0,,,https://waterdata.usgs.gov/sc/nwis/uv?site_no=335025079265600
187,335413079261000,"GREAT PEEDEE RIVER BELOW FLORENCE,SC",33.9035,-79.4361,3040201,EST,0,,0000-00-00 00:00:00,Dis,ft,2018-10-03 08:45:00,0,0.0,,,https://waterdata.usgs.gov/sc/nwis/uv?site_no=335413079261000
188,335512079392400,"LYNCHES RIVER AT US378 NEAR LAKECITY,SC",33.92,-79.6567,3040202,EST,0,,0000-00-00 00:00:00,Dis,ft,2018-10-03 10:15:00,0,0.0,,,https://waterdata.usgs.gov/sc/nwis/uv?site_no=335512079392400
189,335957080495100,"WESTONS POND NEAR COLUMBIA,SC",33.9992,-80.8308,3050104,EST,0,,0000-00-00 00:00:00,Dis,ft,2018-09-24 10:45:00,0,0.0,,,https://waterdata.usgs.gov/sc/nwis/uv?site_no=335957080495100
190,340001080555400,"UPPER LEGION LAKE NEAR COLUMBIA,SC",34.0003,-80.9317,3050104,EST,0,,0000-00-00 00:00:00,Dis,ft,2018-09-24 10:45:00,0,0.0,,,https://waterdata.usgs.gov/sc/nwis/uv?site_no=340001080555400
